std_id;classe_std_id;commu_id;std_std_id;std_code;std_nom;std_contact;std_tel_1;std_tel_2;std_tel_3;std_mail;std_url;std_village;std_hameau;comment;deleted;owner;creation;modification;latitude;longitude;std_privee;std_eec;std_presco;std_primaire;std_college;std_lycee
1;DREN;;;11;ANALAMANGA;;;;;;;;;;FALSE;1;2023-03-01 12:07:29.400184;2023-03-01 12:07:29.400184;-18.42513337;47.42324041;f;f;f;f;f;f
2;DREN;;;12;BONGOLAVA;;;;;;;;;;FALSE;1;2023-03-01 12:07:29.400184;2023-03-01 12:07:29.400184;-18.6042743;46.13347662;f;f;f;f;f;f
3;DREN;;;13;ITASY;;;;;;;;;;FALSE;1;2023-03-01 12:07:29.400184;2023-03-01 12:07:29.400184;-19.05092249;46.88659393;f;f;f;f;f;f
4;DREN;;;14;VAKINANKARATRA;;;;;;;;;;FALSE;1;2023-03-01 12:07:29.400184;2023-03-01 12:07:29.400184;-19.73481001;46.84738444;f;f;f;f;f;f
5;DREN;;;21;DIANA;;;;;;;;;;FALSE;1;2023-03-01 12:07:29.400184;2023-03-01 12:07:29.400184;-13.34181665;48.92640804;f;f;f;f;f;f
6;DREN;;;22;SAVA;;;;;;;;;;FALSE;1;2023-03-01 12:07:29.400184;2023-03-01 12:07:29.400184;-14.31208179;49.82377191;f;f;f;f;f;f
7;DREN;;;31;AMORON'I MANIA;;;;;;;;;;FALSE;1;2023-03-01 12:07:29.400184;2023-03-01 12:07:29.400184;-20.49759624;46.68299504;f;f;f;f;f;f
8;DREN;;;32;ATSIMO-ATSINANANA;;;;;;;;;;FALSE;1;2023-03-01 12:07:29.400184;2023-03-01 12:07:29.400184;-23.29478428;47.24945459;f;f;f;f;f;f
9;DREN;;;33;HAUTE MATSIATRA;;;;;;;;;;FALSE;1;2023-03-01 12:07:29.400184;2023-03-01 12:07:29.400184;-21.44360609;46.59941694;f;f;f;f;f;f
10;DREN;;;34;IHOROMBE;;;;;;;;;;FALSE;1;2023-03-01 12:07:29.400184;2023-03-01 12:07:29.400184;-22.51513428;46.14676212;f;f;f;f;f;f
11;DREN;;;35;FITOVINANY;;;;;;;;;;FALSE;1;2023-03-01 12:07:29.400184;2023-03-01 12:07:29.400184;-21.98617891;47.66844492;f;f;f;f;f;f
12;DREN;;;36;VATOVAVY;;;;;;;;;;FALSE;1;2023-03-01 12:07:29.400184;2023-03-01 12:07:29.400184;-20.98418745;47.97677165;f;f;f;f;f;f
13;DREN;;;41;BETSIBOKA;;;;;;;;;;FALSE;1;2023-03-01 12:07:29.400184;2023-03-01 12:07:29.400184;-17.23558889;47.02821927;f;f;f;f;f;f
14;DREN;;;42;BOENY;;;;;;;;;;FALSE;1;2023-03-01 12:07:29.400184;2023-03-01 12:07:29.400184;-16.29297251;46.19980807;f;f;f;f;f;f
15;DREN;;;43;MELAKY;;;;;;;;;;FALSE;1;2023-03-01 12:07:29.400184;2023-03-01 12:07:29.400184;-17.71507131;44.80881104;f;f;f;f;f;f
16;DREN;;;44;SOFIA;;;;;;;;;;FALSE;1;2023-03-01 12:07:29.400184;2023-03-01 12:07:29.400184;-15.33408148;48.29192616;f;f;f;f;f;f
17;DREN;;;51;ALAOTRA-MANGORO;;;;;;;;;;FALSE;1;2023-03-01 12:07:29.400184;2023-03-01 12:07:29.400184;-17.90515816;48.32361525;f;f;f;f;f;f
18;DREN;;;52;ANALANJIROFO;;;;;;;;;;FALSE;1;2023-03-01 12:07:29.400184;2023-03-01 12:07:29.400184;-16.37739249;49.36710017;f;f;f;f;f;f
19;DREN;;;53;ATSINANANA;;;;;;;;;;FALSE;1;2023-03-01 12:07:29.400184;2023-03-01 12:07:29.400184;-19.10199204;48.68613695;f;f;f;f;f;f
20;DREN;;;61;ANDROY;;;;;;;;;;FALSE;1;2023-03-01 12:07:29.400184;2023-03-01 12:07:29.400184;-24.82177017;45.44543548;f;f;f;f;f;f
21;DREN;;;62;ANOSY;;;;;;;;;;FALSE;1;2023-03-01 12:07:29.400184;2023-03-01 12:07:29.400184;-23.98109998;46.25694303;f;f;f;f;f;f
22;DREN;;;63;ATSIMO-ANDREFANA;;;;;;;;;;FALSE;1;2023-03-01 12:07:29.400184;2023-03-01 12:07:29.400184;-23.05987084;44.42786527;f;f;f;f;f;f
23;DREN;;;64;MENABE;;;;;;;;;;FALSE;1;2023-03-01 12:07:29.400184;2023-03-01 12:07:29.400184;-20.24328089;44.88990797;f;f;f;f;f;f
24;CISCO;;1;101;ANTANANARIVO RENIVOHITRA;;;;;;;;;;FALSE;1;2023-03-01 12:07:29.400184;2023-03-01 12:07:29.400184;-18.89754444;47.52333947;f;f;f;f;f;f
25;CISCO;;1;102;ANTANANARIVO ATSIMONDRANO;;;;;;;;;;FALSE;1;2023-03-01 12:07:29.400184;2023-03-01 12:07:29.400184;-19.02766721;47.51861845;f;f;f;f;f;f
26;CISCO;;1;103;ANTANANARIVO AVARADRANO;;;;;;;;;;FALSE;1;2023-03-01 12:07:29.400184;2023-03-01 12:07:29.400184;-18.90154971;47.62569051;f;f;f;f;f;f
27;CISCO;;4;104;AMBATOLAMPY;;;;;;;;;;FALSE;1;2023-03-01 12:07:29.400184;2023-03-01 12:07:29.400184;-19.46340087;47.56566393;f;f;f;f;f;f
28;CISCO;;1;105;AMBOHIDRATRIMO;;;;;;;;;;FALSE;1;2023-03-01 12:07:29.400184;2023-03-01 12:07:29.400184;-18.66540224;47.43592204;f;f;f;f;f;f
29;CISCO;;1;106;ANDRAMASINA;;;;;;;;;;FALSE;1;2023-03-01 12:07:29.400184;2023-03-01 12:07:29.400184;-19.30017412;47.74606759;f;f;f;f;f;f
30;CISCO;;1;107;ANJOZOROBE;;;;;;;;;;FALSE;1;2023-03-01 12:07:29.400184;2023-03-01 12:07:29.400184;-18.20250825;47.75152084;f;f;f;f;f;f
31;CISCO;;1;108;ANKAZOBE;;;;;;;;;;FALSE;1;2023-03-01 12:07:29.400184;2023-03-01 12:07:29.400184;-18.16226991;47.05502249;f;f;f;f;f;f
32;CISCO;;4;109;ANTANIFOTSY;;;;;;;;;;FALSE;1;2023-03-01 12:07:29.400184;2023-03-01 12:07:29.400184;-19.74559081;47.49878776;f;f;f;f;f;f
33;CISCO;;4;110;ANTSIRABE I;;;;;;;;;;FALSE;1;2023-03-01 12:07:29.400184;2023-03-01 12:07:29.400184;-19.88192311;47.03189337;f;f;f;f;f;f
34;CISCO;;4;111;ANTSIRABE II;;;;;;;;;;FALSE;1;2023-03-01 12:07:29.400184;2023-03-01 12:07:29.400184;-19.88231913;47.15860722;f;f;f;f;f;f
35;CISCO;;3;112;ARIVONIMAMO;;;;;;;;;;FALSE;1;2023-03-01 12:07:29.400184;2023-03-01 12:07:29.400184;-19.07051306;47.24049586;f;f;f;f;f;f
36;CISCO;;4;113;BETAFO;;;;;;;;;;FALSE;1;2023-03-01 12:07:29.400184;2023-03-01 12:07:29.400184;-19.94703969;46.66748255;f;f;f;f;f;f
37;CISCO;;4;114;FARATSIHO;;;;;;;;;;FALSE;1;2023-03-01 12:07:29.400184;2023-03-01 12:07:29.400184;-19.41227585;46.90292967;f;f;f;f;f;f
38;CISCO;;2;115;FENOARIVOBE;;;;;;;;;;FALSE;1;2023-03-01 12:07:29.400184;2023-03-01 12:07:29.400184;-18.27167477;46.36196911;f;f;f;f;f;f
39;CISCO;;1;116;MANJAKANDRIANA;;;;;;;;;;FALSE;1;2023-03-01 12:07:29.400184;2023-03-01 12:07:29.400184;-18.82833357;47.79052542;f;f;f;f;f;f
40;CISCO;;3;117;MIARINARIVO;;;;;;;;;;FALSE;1;2023-03-01 12:07:29.400184;2023-03-01 12:07:29.400184;-18.90674979;46.83078904;f;f;f;f;f;f
41;CISCO;;3;118;SOAVINANDRIANA;;;;;;;;;;FALSE;1;2023-03-01 12:07:29.400184;2023-03-01 12:07:29.400184;-19.2270747;46.55962795;f;f;f;f;f;f
42;CISCO;;2;119;TSIROANOMANDIDY;;;;;;;;;;FALSE;1;2023-03-01 12:07:29.400184;2023-03-01 12:07:29.400184;-18.84145391;45.97053664;f;f;f;f;f;f
43;CISCO;;4;120;MANDOTO;;;;;;;;;;FALSE;1;2023-03-01 12:07:29.400184;2023-03-01 12:07:29.400184;-19.68272619;46.19767129;f;f;f;f;f;f
44;CISCO;;5;201;ANTSIRANANA I;;;;;;;;;;FALSE;1;2023-03-01 12:07:29.400184;2023-03-01 12:07:29.400184;-12.29114896;49.26504546;f;f;f;f;f;f
45;CISCO;;5;202;ANTSIRANANA II;;;;;;;;;;FALSE;1;2023-03-01 12:07:29.400184;2023-03-01 12:07:29.400184;-12.58623143;49.23749823;f;f;f;f;f;f
46;CISCO;;5;203;AMBANJA;;;;;;;;;;FALSE;1;2023-03-01 12:07:29.400184;2023-03-01 12:07:29.400184;-13.86948241;48.46558201;f;f;f;f;f;f
47;CISCO;;5;204;AMBILOBE;;;;;;;;;;FALSE;1;2023-03-01 12:07:29.400184;2023-03-01 12:07:29.400184;-13.48324095;49.07822826;f;f;f;f;f;f
48;CISCO;;6;205;ANDAPA;;;;;;;;;;FALSE;1;2023-03-01 12:07:29.400184;2023-03-01 12:07:29.400184;-14.56754001;49.55354197;f;f;f;f;f;f
49;CISCO;;6;206;ANTALAHA;;;;;;;;;;FALSE;1;2023-03-01 12:07:29.400184;2023-03-01 12:07:29.400184;-15.2220317;50.14223932;f;f;f;f;f;f
50;CISCO;;5;207;NOSY-BE;;;;;;;;;;FALSE;1;2023-03-01 12:07:29.400184;2023-03-01 12:07:29.400184;-13.33439037;48.26856882;f;f;f;f;f;f
51;CISCO;;6;208;SAMBAVA;;;;;;;;;;FALSE;1;2023-03-01 12:07:29.400184;2023-03-01 12:07:29.400184;-14.22234878;49.78569058;f;f;f;f;f;f
52;CISCO;;6;209;VOHEMAR;;;;;;;;;;FALSE;1;2023-03-01 12:07:29.400184;2023-03-01 12:07:29.400184;-13.48382768;49.71471773;f;f;f;f;f;f
53;CISCO;;9;301;FIANARANTSOA I;;;;;;;;;;FALSE;1;2023-03-01 12:07:29.400184;2023-03-01 12:07:29.400184;-21.45378563;47.08755621;f;f;f;f;f;f
54;CISCO;;9;302;LALANGINA;;;;;;;;;;FALSE;1;2023-03-01 12:07:29.400184;2023-03-01 12:07:29.400184;-21.41014061;47.26625503;f;f;f;f;f;f
55;CISCO;;9;303;AMBALAVAO;;;;;;;;;;FALSE;1;2023-03-01 12:07:29.400184;2023-03-01 12:07:29.400184;-21.87677592;46.72224966;f;f;f;f;f;f
56;CISCO;;7;304;AMBATOFINANDRAHANA;;;;;;;;;;FALSE;1;2023-03-01 12:07:29.400184;2023-03-01 12:07:29.400184;-20.5023228;46.30951251;f;f;f;f;f;f
57;CISCO;;9;305;AMBOHIMAHASOA;;;;;;;;;;FALSE;1;2023-03-01 12:07:29.400184;2023-03-01 12:07:29.400184;-21.06892435;47.16887378;f;f;f;f;f;f
58;CISCO;;7;306;AMBOSITRA;;;;;;;;;;FALSE;1;2023-03-01 12:07:29.400184;2023-03-01 12:07:29.400184;-20.57562799;47.29988796;f;f;f;f;f;f
59;CISCO;;8;307;BEFOTAKA;;;;;;;;;;FALSE;1;2023-03-01 12:07:29.400184;2023-03-01 12:07:29.400184;-23.88451088;46.81616756;f;f;f;f;f;f
60;CISCO;;7;308;FANDRIANA;;;;;;;;;;FALSE;1;2023-03-01 12:07:29.400184;2023-03-01 12:07:29.400184;-20.26632757;47.44270604;f;f;f;f;f;f
61;CISCO;;8;309;FARAFANGANA;;;;;;;;;;FALSE;1;2023-03-01 12:07:29.400184;2023-03-01 12:07:29.400184;-22.8065549;47.6585345;f;f;f;f;f;f
62;CISCO;;11;310;IKONGO;;;;;;;;;;FALSE;1;2023-03-01 12:07:29.400184;2023-03-01 12:07:29.400184;-21.92578131;47.45026252;f;f;f;f;f;f
63;CISCO;;10;311;IAKORA;;;;;;;;;;FALSE;1;2023-03-01 12:07:29.400184;2023-03-01 12:07:29.400184;-23.15346352;46.63456712;f;f;f;f;f;f
64;CISCO;;12;312;IFANADIANA;;;;;;;;;;FALSE;1;2023-03-01 12:07:29.400184;2023-03-01 12:07:29.400184;-21.09222125;47.63654888;f;f;f;f;f;f
65;CISCO;;10;313;IHOSY;;;;;;;;;;FALSE;1;2023-03-01 12:07:29.400184;2023-03-01 12:07:29.400184;-22.34353767;45.82339905;f;f;f;f;f;f
66;CISCO;;9;314;IKALAMAVONY;;;;;;;;;;FALSE;1;2023-03-01 12:07:29.400184;2023-03-01 12:07:29.400184;-21.28859954;46.21905501;f;f;f;f;f;f
67;CISCO;;10;315;IVOHIBE;;;;;;;;;;FALSE;1;2023-03-01 12:07:29.400184;2023-03-01 12:07:29.400184;-22.52082279;46.9160146;f;f;f;f;f;f
68;CISCO;;11;316;MANAKARA;;;;;;;;;;FALSE;1;2023-03-01 12:07:29.400184;2023-03-01 12:07:29.400184;-21.91632671;47.87231771;f;f;f;f;f;f
69;CISCO;;12;317;MANANJARY;;;;;;;;;;FALSE;1;2023-03-01 12:07:29.400184;2023-03-01 12:07:29.400184;-21.19786068;48.08658941;f;f;f;f;f;f
70;CISCO;;8;318;MIDONGY SUD;;;;;;;;;;FALSE;1;2023-03-01 12:07:29.400184;2023-03-01 12:07:29.400184;-23.34310487;46.99672719;f;f;f;f;f;f
71;CISCO;;12;319;NOSY VARIKA;;;;;;;;;;FALSE;1;2023-03-01 12:07:29.400184;2023-03-01 12:07:29.400184;-20.56532575;48.17339923;f;f;f;f;f;f
72;CISCO;;8;320;VANGAINDRANO;;;;;;;;;;FALSE;1;2023-03-01 12:07:29.400184;2023-03-01 12:07:29.400184;-23.55799308;47.39898373;f;f;f;f;f;f
73;CISCO;;11;321;VOHIPENO;;;;;;;;;;FALSE;1;2023-03-01 12:07:29.400184;2023-03-01 12:07:29.400184;-22.34266536;47.70615598;f;f;f;f;f;f
75;CISCO;;7;323;MANANDRIANA;;;;;;;;;;FALSE;1;2023-03-01 12:07:29.400184;2023-03-01 12:07:29.400184;-22.68661249;47.30603577;f;f;f;f;f;f
76;CISCO;;9;325;ISANDRA;;;;;;;;;;FALSE;1;2023-03-01 12:07:29.400184;2023-03-01 12:07:29.400184;-20.75070821;47.01948084;f;f;f;f;f;f
77;CISCO;;9;326;VOHIBATO;;;;;;;;;;FALSE;1;2023-03-01 12:07:29.400184;2023-03-01 12:07:29.400184;-21.28097394;46.89656324;f;f;f;f;f;f
74;CISCO;;8;322;VONDROZO;;;;;;;;;;FALSE;1;2023-03-01 12:07:29.400184;2023-03-22 16:05:17.940932;-21.66516569;47.08752187;f;f;f;f;f;f
78;CISCO;;14;401;MAHAJANGA I;;;;;;;;;;FALSE;1;2023-03-01 12:07:29.400184;2023-03-01 12:07:29.400184;-15.69685201;46.34393831;f;f;f;f;f;f
79;CISCO;;14;402;MAHAJANGA II;;;;;;;;;;FALSE;1;2023-03-01 12:07:29.400184;2023-03-01 12:07:29.400184;-15.63998512;46.76608042;f;f;f;f;f;f
80;CISCO;;14;403;AMBATO BOENY;;;;;;;;;;FALSE;1;2023-03-01 12:07:29.400184;2023-03-01 12:07:29.400184;-16.67073886;46.47551201;f;f;f;f;f;f
81;CISCO;;15;404;AMBATOMAINTY;;;;;;;;;;FALSE;1;2023-03-01 12:07:29.400184;2023-03-01 12:07:29.400184;-17.74294633;45.59960771;f;f;f;f;f;f
82;CISCO;;16;405;ANALALAVA;;;;;;;;;;FALSE;1;2023-03-01 12:07:29.400184;2023-03-01 12:07:29.400184;-14.72458358;47.78103351;f;f;f;f;f;f
83;CISCO;;15;406;ANTSALOVA;;;;;;;;;;FALSE;1;2023-03-01 12:07:29.400184;2023-03-01 12:07:29.400184;-18.83070071;44.63097201;f;f;f;f;f;f
84;CISCO;;16;407;ANTSOHIHY;;;;;;;;;;FALSE;1;2023-03-01 12:07:29.400184;2023-03-01 12:07:29.400184;-14.99309847;48.05410845;f;f;f;f;f;f
85;CISCO;;16;408;BEALANANA;;;;;;;;;;FALSE;1;2023-03-01 12:07:29.400184;2023-03-01 12:07:29.400184;-14.55324046;48.8350268;f;f;f;f;f;f
86;CISCO;;16;409;BEFANDRIANA NORD;;;;;;;;;;FALSE;1;2023-03-01 12:07:29.400184;2023-03-01 12:07:29.400184;-15.16449836;48.77215118;f;f;f;f;f;f
87;CISCO;;15;410;BESALAMPY;;;;;;;;;;FALSE;1;2023-03-01 12:07:29.400184;2023-03-01 12:07:29.400184;-16.9036387;44.91276889;f;f;f;f;f;f
88;CISCO;;13;411;KANDREHO;;;;;;;;;;FALSE;1;2023-03-01 12:07:29.400184;2023-03-01 12:07:29.400184;-17.40943072;46.05162279;f;f;f;f;f;f
89;CISCO;;13;412;MAEVATANANA;;;;;;;;;;FALSE;1;2023-03-01 12:07:29.400184;2023-03-01 12:07:29.400184;-17.2395565;46.89126897;f;f;f;f;f;f
90;CISCO;;15;413;MAINTIRANO;;;;;;;;;;FALSE;1;2023-03-01 12:07:29.400184;2023-03-01 12:07:29.400184;-17.73405723;44.31581716;f;f;f;f;f;f
91;CISCO;;16;414;MAMPIKONY;;;;;;;;;;FALSE;1;2023-03-01 12:07:29.400184;2023-03-01 12:07:29.400184;-16.16168897;47.67329572;f;f;f;f;f;f
92;CISCO;;16;415;MANDRITSARA;;;;;;;;;;FALSE;1;2023-03-01 12:07:29.400184;2023-03-01 12:07:29.400184;-16.0334771;48.73623096;f;f;f;f;f;f
93;CISCO;;14;416;MAROVOAY;;;;;;;;;;FALSE;1;2023-03-01 12:07:29.400184;2023-03-01 12:07:29.400184;-16.1588639;46.62377973;f;f;f;f;f;f
94;CISCO;;14;417;MITSINJO;;;;;;;;;;FALSE;1;2023-03-01 12:07:29.400184;2023-03-01 12:07:29.400184;-16.08480821;45.9273371;f;f;f;f;f;f
95;CISCO;;15;418;MORAFENOBE;;;;;;;;;;FALSE;1;2023-03-01 12:07:29.400184;2023-03-01 12:07:29.400184;-17.93465874;44.95933428;f;f;f;f;f;f
96;CISCO;;16;419;PORT BERGE;;;;;;;;;;FALSE;1;2023-03-01 12:07:29.400184;2023-03-01 12:07:29.400184;-15.71441211;47.7216949;f;f;f;f;f;f
97;CISCO;;14;420;SOALALA;;;;;;;;;;FALSE;1;2023-03-01 12:07:29.400184;2023-03-01 12:07:29.400184;-16.49670249;45.40883487;f;f;f;f;f;f
98;CISCO;;13;421;TSARATANANA;;;;;;;;;;FALSE;1;2023-03-01 12:07:29.400184;2023-03-01 12:07:29.400184;-17.14456532;47.64115844;f;f;f;f;f;f
99;CISCO;;19;501;TOAMASINA I;;;;;;;;;;FALSE;1;2023-03-01 12:07:29.400184;2023-03-01 12:07:29.400184;-18.14588289;49.39530838;f;f;f;f;f;f
100;CISCO;;19;502;TOAMASINA II;;;;;;;;;;FALSE;1;2023-03-01 12:07:29.400184;2023-03-01 12:07:29.400184;-18.00554162;49.14116396;f;f;f;f;f;f
101;CISCO;;17;503;AMBATONDRAZAKA;;;;;;;;;;FALSE;1;2023-03-01 12:07:29.400184;2023-03-01 12:07:29.400184;-17.91858872;48.45115199;f;f;f;f;f;f
102;CISCO;;17;504;AMPARAFARAVOLA;;;;;;;;;;FALSE;1;2023-03-01 12:07:29.400184;2023-03-01 12:07:29.400184;-17.44092639;48.34273128;f;f;f;f;f;f
103;CISCO;;17;505;ANDILAMENA;;;;;;;;;;FALSE;1;2023-03-01 12:07:29.400184;2023-03-01 12:07:29.400184;-16.72048604;48.34912739;f;f;f;f;f;f
104;CISCO;;17;506;ANOSIBE AN'ALA;;;;;;;;;;FALSE;1;2023-03-01 12:07:29.400184;2023-03-01 12:07:29.400184;-19.51379998;48.12456679;f;f;f;f;f;f
105;CISCO;;19;507;ANTANAMBAO MANAMPOTSY;;;;;;;;;;FALSE;1;2023-03-01 12:07:29.400184;2023-03-01 12:07:29.400184;-19.55847527;48.47018583;f;f;f;f;f;f
106;CISCO;;19;508;BRICKAVILLE;;;;;;;;;;FALSE;1;2023-03-01 12:07:29.400184;2023-03-01 12:07:29.400184;-18.64180934;48.85338248;f;f;f;f;f;f
107;CISCO;;18;509;FENERIVE EST;;;;;;;;;;FALSE;1;2023-03-01 12:07:29.400184;2023-03-01 12:07:29.400184;-17.16364577;49.20300175;f;f;f;f;f;f
108;CISCO;;19;510;MAHANORO;;;;;;;;;;FALSE;1;2023-03-01 12:07:29.400184;2023-03-01 12:07:29.400184;-20.03157133;48.51769157;f;f;f;f;f;f
109;CISCO;;18;511;MANANARA NORD;;;;;;;;;;FALSE;1;2023-03-01 12:07:29.400184;2023-03-01 12:07:29.400184;-16.23231138;49.51193699;f;f;f;f;f;f
110;CISCO;;18;512;MAROANTSETRA;;;;;;;;;;FALSE;1;2023-03-01 12:07:29.400184;2023-03-01 12:07:29.400184;-15.46093793;49.50012363;f;f;f;f;f;f
111;CISCO;;19;513;MAROLAMBO;;;;;;;;;;FALSE;1;2023-03-01 12:07:29.400184;2023-03-01 12:07:29.400184;-20.09207094;47.96665533;f;f;f;f;f;f
112;CISCO;;17;514;MORAMANGA;;;;;;;;;;FALSE;1;2023-03-01 12:07:29.400184;2023-03-01 12:07:29.400184;-18.80593473;48.26582132;f;f;f;f;f;f
113;CISCO;;18;515;SAINTE MARIE;;;;;;;;;;FALSE;1;2023-03-01 12:07:29.400184;2023-03-01 12:07:29.400184;-16.90033219;49.90994892;f;f;f;f;f;f
114;CISCO;;18;516;SOANIERANA IVONGO;;;;;;;;;;FALSE;1;2023-03-01 12:07:29.400184;2023-03-01 12:07:29.400184;-16.72340384;49.30982917;f;f;f;f;f;f
115;CISCO;;19;517;VATOMANDRY;;;;;;;;;;FALSE;1;2023-03-01 12:07:29.400184;2023-03-01 12:07:29.400184;-19.3608476;48.77893493;f;f;f;f;f;f
116;CISCO;;18;518;VAVATENINA;;;;;;;;;;FALSE;1;2023-03-01 12:07:29.400184;2023-03-01 12:07:29.400184;-17.50603094;49.02130294;f;f;f;f;f;f
117;CISCO;;22;601;TOLIARA I;;;;;;;;;;FALSE;1;2023-03-01 12:07:29.400184;2023-03-01 12:07:29.400184;-23.34036079;43.65939766;f;f;f;f;f;f
118;CISCO;;22;602;TOLIARA II;;;;;;;;;;FALSE;1;2023-03-01 12:07:29.400184;2023-03-01 12:07:29.400184;-23.23014869;43.79255973;f;f;f;f;f;f
119;CISCO;;21;603;AMBOASARY;;;;;;;;;;FALSE;1;2023-03-01 12:07:29.400184;2023-03-01 12:07:29.400184;-24.42397766;46.35409922;f;f;f;f;f;f
120;CISCO;;20;604;AMBOVOMBE;;;;;;;;;;FALSE;1;2023-03-01 12:07:29.400184;2023-03-01 12:07:29.400184;-24.86047501;45.78654836;f;f;f;f;f;f
121;CISCO;;22;605;AMPANIHY;;;;;;;;;;FALSE;1;2023-03-01 12:07:29.400184;2023-03-01 12:07:29.400184;-24.5230227;44.48092207;f;f;f;f;f;f
122;CISCO;;22;606;ANKAZOABO;;;;;;;;;;FALSE;1;2023-03-01 12:07:29.400184;2023-03-01 12:07:29.400184;-22.16950045;44.67902325;f;f;f;f;f;f
123;CISCO;;20;607;BEKILY;;;;;;;;;;FALSE;1;2023-03-01 12:07:29.400184;2023-03-01 12:07:29.400184;-24.25216747;45.39490297;f;f;f;f;f;f
124;CISCO;;23;608;BELO SUR TSIRIBIHINA;;;;;;;;;;FALSE;1;2023-03-01 12:07:29.400184;2023-03-01 12:07:29.400184;-19.63717584;44.84212085;f;f;f;f;f;f
125;CISCO;;20;609;BELOHA;;;;;;;;;;FALSE;1;2023-03-01 12:07:29.400184;2023-03-01 12:07:29.400184;-25.09059315;45.02242632;f;f;f;f;f;f
126;CISCO;;22;610;BENENITRA;;;;;;;;;;FALSE;1;2023-03-01 12:07:29.400184;2023-03-01 12:07:29.400184;-23.40308294;45.08670589;f;f;f;f;f;f
127;CISCO;;22;611;BEROROHA;;;;;;;;;;FALSE;1;2023-03-01 12:07:29.400184;2023-03-01 12:07:29.400184;-21.48535209;45.20291714;f;f;f;f;f;f
128;CISCO;;22;612;BETIOKY;;;;;;;;;;FALSE;1;2023-03-01 12:07:29.400184;2023-03-01 12:07:29.400184;-23.67800692;44.49390005;f;f;f;f;f;f
129;CISCO;;21;613;BETROKA;;;;;;;;;;FALSE;1;2023-03-01 12:07:29.400184;2023-03-01 12:07:29.400184;-23.37234607;45.87699052;f;f;f;f;f;f
130;CISCO;;21;614;TAOLAGNARO;;;;;;;;;;FALSE;1;2023-03-01 12:07:29.400184;2023-03-01 12:07:29.400184;-24.63172877;46.96046806;f;f;f;f;f;f
131;CISCO;;23;615;MAHABO;;;;;;;;;;FALSE;1;2023-03-01 12:07:29.400184;2023-03-01 12:07:29.400184;-20.63662933;45.16562818;f;f;f;f;f;f
132;CISCO;;23;616;MANJA;;;;;;;;;;FALSE;1;2023-03-01 12:07:29.400184;2023-03-01 12:07:29.400184;-21.42012704;44.19328824;f;f;f;f;f;f
133;CISCO;;23;617;MIANDRIVAZO;;;;;;;;;;FALSE;1;2023-03-01 12:07:29.400184;2023-03-01 12:07:29.400184;-19.1628017;45.36912781;f;f;f;f;f;f
134;CISCO;;22;618;MOROMBE;;;;;;;;;;FALSE;1;2023-03-01 12:07:29.400184;2023-03-01 12:07:29.400184;-22.01669436;43.70539504;f;f;f;f;f;f
135;CISCO;;23;619;MORONDAVA;;;;;;;;;;FALSE;1;2023-03-01 12:07:29.400184;2023-03-01 12:07:29.400184;-20.58014881;44.37961185;f;f;f;f;f;f
136;CISCO;;22;620;SAKARAHA;;;;;;;;;;FALSE;1;2023-03-01 12:07:29.400184;2023-03-01 12:07:29.400184;-22.7865077;44.44130312;f;f;f;f;f;f
137;CISCO;;20;621;TSIHOMBE;;;;;;;;;;FALSE;1;2023-03-01 12:07:29.400184;2023-03-01 12:07:29.400184;-25.36287051;45.47244296;f;f;f;f;f;f
138;ZAP;1;101;50313;FERAMANGA NORD;;;;;;;;;;FALSE;1;2023-03-01 12:07:29.400184;2023-03-01 12:07:29.400184;;;f;f;f;f;f;f
139;ZAP;2;101;50302;AMBATONDRAZAKA II;;;;;;;;;;FALSE;1;2023-03-01 12:07:29.400184;2023-03-01 12:07:29.400184;;;f;f;f;f;f;f
140;ZAP;2;101;50301;AMBATONDRAZAKA I;;;;;;;;;;FALSE;1;2023-03-01 12:07:29.400184;2023-03-01 12:07:29.400184;;;f;f;f;f;f;f
141;ZAP;3;101;50303;AMBATONDRAZAKA SUB;;;;;;;;;;FALSE;1;2023-03-01 12:07:29.400184;2023-03-01 12:07:29.400184;;;f;f;f;f;f;f
142;ZAP;2;101;50303;AMBATONDRAZAKA SUB;;;;;;;;;;FALSE;1;2023-03-01 12:07:29.400184;2023-03-01 12:07:29.400184;;;f;f;f;f;f;f
143;ZAP;4;101;50304;AMBATOSORATRA;;;;;;;;;;FALSE;1;2023-03-01 12:07:29.400184;2023-03-01 12:07:29.400184;;;f;f;f;f;f;f
144;ZAP;5;101;50304;AMBATOSORATRA;;;;;;;;;;FALSE;1;2023-03-01 12:07:29.400184;2023-03-01 12:07:29.400184;;;f;f;f;f;f;f
145;ZAP;6;101;50305;AMBOHITSILAOZANA;;;;;;;;;;FALSE;1;2023-03-01 12:07:29.400184;2023-03-01 12:07:29.400184;;;f;f;f;f;f;f
146;ZAP;7;101;50306;AMPARIHINTSOKATRA;;;;;;;;;;FALSE;1;2023-03-01 12:07:29.400184;2023-03-01 12:07:29.400184;;;f;f;f;f;f;f
147;ZAP;8;101;50307;AMPITATSIMO;;;;;;;;;;FALSE;1;2023-03-01 12:07:29.400184;2023-03-01 12:07:29.400184;;;f;f;f;f;f;f
148;ZAP;9;101;50308;ANDILANATOBY;;;;;;;;;;FALSE;1;2023-03-01 12:07:29.400184;2023-03-01 12:07:29.400184;;;f;f;f;f;f;f
149;ZAP;10;101;50309;ANDROMBA;;;;;;;;;;FALSE;1;2023-03-01 12:07:29.400184;2023-03-01 12:07:29.400184;;;f;f;f;f;f;f
150;ZAP;11;101;50309;ANDROMBA;;;;;;;;;;FALSE;1;2023-03-01 12:07:29.400184;2023-03-01 12:07:29.400184;;;f;f;f;f;f;f
151;ZAP;12;101;50317;MANAKAMBAHINY OUEST;;;;;;;;;;FALSE;1;2023-03-01 12:07:29.400184;2023-03-01 12:07:29.400184;;;f;f;f;f;f;f
152;ZAP;13;101;50310;BEJOFO;;;;;;;;;;FALSE;1;2023-03-01 12:07:29.400184;2023-03-01 12:07:29.400184;;;f;f;f;f;f;f
153;ZAP;14;101;50311;DIDY I;;;;;;;;;;FALSE;1;2023-03-01 12:07:29.400184;2023-03-01 12:07:29.400184;;;f;f;f;f;f;f
154;ZAP;14;101;50312;DIDY II;;;;;;;;;;FALSE;1;2023-03-01 12:07:29.400184;2023-03-01 12:07:29.400184;;;f;f;f;f;f;f
155;ZAP;15;101;50313;FERAMANGA NORD;;;;;;;;;;FALSE;1;2023-03-01 12:07:29.400184;2023-03-01 12:07:29.400184;;;f;f;f;f;f;f
156;ZAP;16;101;50314;ILAFY;;;;;;;;;;FALSE;1;2023-03-01 12:07:29.400184;2023-03-01 12:07:29.400184;;;f;f;f;f;f;f
157;ZAP;17;101;50315;IMERIMANDROSO;;;;;;;;;;FALSE;1;2023-03-01 12:07:29.400184;2023-03-01 12:07:29.400184;;;f;f;f;f;f;f
158;ZAP;18;101;50316;MANAKAMBAHINY EST;;;;;;;;;;FALSE;1;2023-03-01 12:07:29.400184;2023-03-01 12:07:29.400184;;;f;f;f;f;f;f
159;ZAP;19;101;50317;MANAKAMBAHINY OUEST;;;;;;;;;;FALSE;1;2023-03-01 12:07:29.400184;2023-03-01 12:07:29.400184;;;f;f;f;f;f;f
160;ZAP;19;101;50307;AMPITATSIMO;;;;;;;;;;FALSE;1;2023-03-01 12:07:29.400184;2023-03-01 12:07:29.400184;;;f;f;f;f;f;f
161;ZAP;20;101;50318;SOALAZAINA;;;;;;;;;;FALSE;1;2023-03-01 12:07:29.400184;2023-03-01 12:07:29.400184;;;f;f;f;f;f;f
162;ZAP;21;101;50319;TANAMBAO BESAKAY;;;;;;;;;;FALSE;1;2023-03-01 12:07:29.400184;2023-03-01 12:07:29.400184;;;f;f;f;f;f;f
163;ZAP;22;101;50303;AMBATONDRAZAKA SUB;;;;;;;;;;FALSE;1;2023-03-01 12:07:29.400184;2023-03-01 12:07:29.400184;;;f;f;f;f;f;f
164;ZAP;2;101;50312;DIDY II;;;;;;;;;;FALSE;1;2023-03-01 12:07:29.400184;2023-03-01 12:07:29.400184;;;f;f;f;f;f;f
165;ZAP;22;101;50307;AMPITATSIMO;;;;;;;;;;FALSE;1;2023-03-01 12:07:29.400184;2023-03-01 12:07:29.400184;;;f;f;f;f;f;f
166;ZAP;17;101;50309;ANDROMBA;;;;;;;;;;FALSE;1;2023-03-01 12:07:29.400184;2023-03-01 12:07:29.400184;;;f;f;f;f;f;f
167;ZAP;22;101;50314;ILAFY;;;;;;;;;;FALSE;1;2023-03-01 12:07:29.400184;2023-03-01 12:07:29.400184;;;f;f;f;f;f;f
168;ZAP;23;102;50417;MAHATSINJO;;;;;;;;;;FALSE;1;2023-03-01 12:07:29.400184;2023-03-01 12:07:29.400184;;;f;f;f;f;f;f
169;ZAP;24;102;50401;AMBATOMAINTY;;;;;;;;;;FALSE;1;2023-03-01 12:07:29.400184;2023-03-01 12:07:29.400184;;;f;f;f;f;f;f
170;ZAP;25;102;50402;AMBOAVORY I;;;;;;;;;;FALSE;1;2023-03-01 12:07:29.400184;2023-03-01 12:07:29.400184;;;f;f;f;f;f;f
171;ZAP;26;102;50404;AMBOHIJANAHARY I;;;;;;;;;;FALSE;1;2023-03-01 12:07:29.400184;2023-03-01 12:07:29.400184;;;f;f;f;f;f;f
172;ZAP;26;102;50405;AMBOHIJANAHARY II;;;;;;;;;;FALSE;1;2023-03-01 12:07:29.400184;2023-03-01 12:07:29.400184;;;f;f;f;f;f;f
173;ZAP;27;102;50407;AMBOHITRARIVO;;;;;;;;;;FALSE;1;2023-03-01 12:07:29.400184;2023-03-01 12:07:29.400184;;;f;f;f;f;f;f
174;ZAP;28;102;50410;AMPARAFARAVOLA III;;;;;;;;;;FALSE;1;2023-03-01 12:07:29.400184;2023-03-01 12:07:29.400184;;;f;f;f;f;f;f
175;ZAP;28;102;50408;AMPARAFARAVOLA I;;;;;;;;;;FALSE;1;2023-03-01 12:07:29.400184;2023-03-01 12:07:29.400184;;;f;f;f;f;f;f
176;ZAP;28;102;50409;AMPARAFARAVOLA II;;;;;;;;;;FALSE;1;2023-03-01 12:07:29.400184;2023-03-01 12:07:29.400184;;;f;f;f;f;f;f
177;ZAP;29;102;50412;ANDREBAKELY NORD;;;;;;;;;;FALSE;1;2023-03-01 12:07:29.400184;2023-03-01 12:07:29.400184;;;f;f;f;f;f;f
178;ZAP;30;102;50415;BEANANA;;;;;;;;;;FALSE;1;2023-03-01 12:07:29.400184;2023-03-01 12:07:29.400184;;;f;f;f;f;f;f
179;ZAP;31;102;50416;BEDIDY;;;;;;;;;;FALSE;1;2023-03-01 12:07:29.400184;2023-03-01 12:07:29.400184;;;f;f;f;f;f;f
180;ZAP;32;102;50424;VOHIMENA;;;;;;;;;;FALSE;1;2023-03-01 12:07:29.400184;2023-03-01 12:07:29.400184;;;f;f;f;f;f;f
181;ZAP;33;102;50425;VOHITSARA AMBODIMANGA;;;;;;;;;;FALSE;1;2023-03-01 12:07:29.400184;2023-03-01 12:07:29.400184;;;f;f;f;f;f;f
182;ZAP;34;102;50411;ANDILANA NORD;;;;;;;;;;FALSE;1;2023-03-01 12:07:29.400184;2023-03-01 12:07:29.400184;;;f;f;f;f;f;f
183;ZAP;35;102;50413;ANDREBAKELY SUD AMPASIKELY;;;;;;;;;;FALSE;1;2023-03-01 12:07:29.400184;2023-03-01 12:07:29.400184;;;f;f;f;f;f;f
184;ZAP;36;102;50413;ANDREBAKELY SUD AMPASIKELY;;;;;;;;;;FALSE;1;2023-03-01 12:07:29.400184;2023-03-01 12:07:29.400184;;;f;f;f;f;f;f
185;ZAP;37;102;50421;SAHAMAMY;;;;;;;;;;FALSE;1;2023-03-01 12:07:29.400184;2023-03-01 12:07:29.400184;;;f;f;f;f;f;f
186;ZAP;38;102;50406;AMBOHIMANDROSO I;;;;;;;;;;FALSE;1;2023-03-01 12:07:29.400184;2023-03-01 12:07:29.400184;;;f;f;f;f;f;f
187;ZAP;39;102;50414;ANORORO;;;;;;;;;;FALSE;1;2023-03-01 12:07:29.400184;2023-03-01 12:07:29.400184;;;f;f;f;f;f;f
188;ZAP;40;102;50418;MORARANO CHROME I;;;;;;;;;;FALSE;1;2023-03-01 12:07:29.400184;2023-03-01 12:07:29.400184;;;f;f;f;f;f;f
189;ZAP;41;102;50417;MAHATSINJO;;;;;;;;;;FALSE;1;2023-03-01 12:07:29.400184;2023-03-01 12:07:29.400184;;;f;f;f;f;f;f
190;ZAP;40;102;50419;MORARANO CHROME II;;;;;;;;;;FALSE;1;2023-03-01 12:07:29.400184;2023-03-01 12:07:29.400184;;;f;f;f;f;f;f
191;ZAP;40;102;50420;MORARANO CHROME III;;;;;;;;;;FALSE;1;2023-03-01 12:07:29.400184;2023-03-01 12:07:29.400184;;;f;f;f;f;f;f
192;ZAP;42;102;50423;TANAMBE II;;;;;;;;;;FALSE;1;2023-03-01 12:07:29.400184;2023-03-01 12:07:29.400184;;;f;f;f;f;f;f
193;ZAP;42;102;50422;TANAMBE I;;;;;;;;;;FALSE;1;2023-03-01 12:07:29.400184;2023-03-01 12:07:29.400184;;;f;f;f;f;f;f
194;ZAP;25;102;50403;AMBOAVORY II;;;;;;;;;;FALSE;1;2023-03-01 12:07:29.400184;2023-03-01 12:07:29.400184;;;f;f;f;f;f;f
195;ZAP;43;102;50405;AMBOHIJANAHARY II;;;;;;;;;;FALSE;1;2023-03-01 12:07:29.400184;2023-03-01 12:07:29.400184;;;f;f;f;f;f;f
196;ZAP;44;102;50425;VOHITSARA AMBODIMANGA;;;;;;;;;;FALSE;1;2023-03-01 12:07:29.400184;2023-03-01 12:07:29.400184;;;f;f;f;f;f;f
197;ZAP;40;102;50413;ANDREBAKELY SUD AMPASIKELY;;;;;;;;;;FALSE;1;2023-03-01 12:07:29.400184;2023-03-01 12:07:29.400184;;;f;f;f;f;f;f
198;ZAP;41;102;50419;MORARANO CHROME II;;;;;;;;;;FALSE;1;2023-03-01 12:07:29.400184;2023-03-01 12:07:29.400184;;;f;f;f;f;f;f
199;ZAP;40;102;50417;MAHATSINJO;;;;;;;;;;FALSE;1;2023-03-01 12:07:29.400184;2023-03-01 12:07:29.400184;;;f;f;f;f;f;f
200;ZAP;45;103;50502;ANDILAMENA CENTRE;;;;;;;;;;FALSE;1;2023-03-01 12:07:29.400184;2023-03-01 12:07:29.400184;;;f;f;f;f;f;f
201;ZAP;45;103;50504;ANDILAMENA SUD;;;;;;;;;;FALSE;1;2023-03-01 12:07:29.400184;2023-03-01 12:07:29.400184;;;f;f;f;f;f;f
202;ZAP;46;103;50506;ANTANIMENABAKA SUD;;;;;;;;;;FALSE;1;2023-03-01 12:07:29.400184;2023-03-01 12:07:29.400184;;;f;f;f;f;f;f
203;ZAP;46;103;50505;ANTANIMENABAKA NORD;;;;;;;;;;FALSE;1;2023-03-01 12:07:29.400184;2023-03-01 12:07:29.400184;;;f;f;f;f;f;f
204;ZAP;47;103;50511;MIARINARIVO NORD;;;;;;;;;;FALSE;1;2023-03-01 12:07:29.400184;2023-03-01 12:07:29.400184;;;f;f;f;f;f;f
205;ZAP;45;103;50503;ANDILAMENA NORD;;;;;;;;;;FALSE;1;2023-03-01 12:07:29.400184;2023-03-01 12:07:29.400184;;;f;f;f;f;f;f
206;ZAP;48;103;50507;BEMAITSO;;;;;;;;;;FALSE;1;2023-03-01 12:07:29.400184;2023-03-01 12:07:29.400184;;;f;f;f;f;f;f
207;ZAP;49;103;50508;MAITSOKELY;;;;;;;;;;FALSE;1;2023-03-01 12:07:29.400184;2023-03-01 12:07:29.400184;;;f;f;f;f;f;f
208;ZAP;50;103;50501;AMPONDRABE;;;;;;;;;;FALSE;1;2023-03-01 12:07:29.400184;2023-03-01 12:07:29.400184;;;f;f;f;f;f;f
209;ZAP;51;103;50509;MAROADABO;;;;;;;;;;FALSE;1;2023-03-01 12:07:29.400184;2023-03-01 12:07:29.400184;;;f;f;f;f;f;f
210;ZAP;52;103;50510;MAROVATO;;;;;;;;;;FALSE;1;2023-03-01 12:07:29.400184;2023-03-01 12:07:29.400184;;;f;f;f;f;f;f
211;ZAP;47;103;50512;MIARINARIVO SUD;;;;;;;;;;FALSE;1;2023-03-01 12:07:29.400184;2023-03-01 12:07:29.400184;;;f;f;f;f;f;f
212;ZAP;53;103;50513;TANANANIFOLOLAHY;;;;;;;;;;FALSE;1;2023-03-01 12:07:29.400184;2023-03-01 12:07:29.400184;;;f;f;f;f;f;f
213;ZAP;54;104;50601;AMBALAOMBY;;;;;;;;;;FALSE;1;2023-03-01 12:07:29.400184;2023-03-01 12:07:29.400184;;;f;f;f;f;f;f
214;ZAP;55;104;50602;AMBATOHARANANA;;;;;;;;;;FALSE;1;2023-03-01 12:07:29.400184;2023-03-01 12:07:29.400184;;;f;f;f;f;f;f
215;ZAP;56;104;50603;AMBODIMERANA;;;;;;;;;;FALSE;1;2023-03-01 12:07:29.400184;2023-03-01 12:07:29.400184;;;f;f;f;f;f;f
216;ZAP;57;104;50604;AMPANDROANTRAKA;;;;;;;;;;FALSE;1;2023-03-01 12:07:29.400184;2023-03-01 12:07:29.400184;;;f;f;f;f;f;f
217;ZAP;58;104;50606;ANOSIBE AN'ALA;;;;;;;;;;FALSE;1;2023-03-01 12:07:29.400184;2023-03-01 12:07:29.400184;;;f;f;f;f;f;f
218;ZAP;59;104;50607;ANTANDROKOMBY;;;;;;;;;;FALSE;1;2023-03-01 12:07:29.400184;2023-03-01 12:07:29.400184;;;f;f;f;f;f;f
219;ZAP;60;104;50608;FENOARIVO;;;;;;;;;;FALSE;1;2023-03-01 12:07:29.400184;2023-03-01 12:07:29.400184;;;f;f;f;f;f;f
220;ZAP;60;104;50609;LONGOZABE;;;;;;;;;;FALSE;1;2023-03-01 12:07:29.400184;2023-03-01 12:07:29.400184;;;f;f;f;f;f;f
221;ZAP;58;104;50613;TSARATAMPONA;;;;;;;;;;FALSE;1;2023-03-01 12:07:29.400184;2023-03-01 12:07:29.400184;;;f;f;f;f;f;f
222;ZAP;61;104;50614;TSARAVINANY;;;;;;;;;;FALSE;1;2023-03-01 12:07:29.400184;2023-03-01 12:07:29.400184;;;f;f;f;f;f;f
223;ZAP;58;104;50603;AMBODIMERANA;;;;;;;;;;FALSE;1;2023-03-01 12:07:29.400184;2023-03-01 12:07:29.400184;;;f;f;f;f;f;f
224;ZAP;62;104;50611;NIAROVANA;;;;;;;;;;FALSE;1;2023-03-01 12:07:29.400184;2023-03-01 12:07:29.400184;;;f;f;f;f;f;f
225;ZAP;60;104;50603;AMBODIMERANA;;;;;;;;;;FALSE;1;2023-03-01 12:07:29.400184;2023-03-01 12:07:29.400184;;;f;f;f;f;f;f
226;ZAP;59;104;50610;MORAFENO II;;;;;;;;;;FALSE;1;2023-03-01 12:07:29.400184;2023-03-01 12:07:29.400184;;;f;f;f;f;f;f
227;ZAP;58;104;50605;AMPASIMANEVA;;;;;;;;;;FALSE;1;2023-03-01 12:07:29.400184;2023-03-01 12:07:29.400184;;;f;f;f;f;f;f
228;ZAP;63;104;50605;AMPASIMANEVA;;;;;;;;;;FALSE;1;2023-03-01 12:07:29.400184;2023-03-01 12:07:29.400184;;;f;f;f;f;f;f
229;ZAP;56;104;50612;TRATRAMARINA;;;;;;;;;;FALSE;1;2023-03-01 12:07:29.400184;2023-03-01 12:07:29.400184;;;f;f;f;f;f;f
230;ZAP;64;104;50612;TRATRAMARINA;;;;;;;;;;FALSE;1;2023-03-01 12:07:29.400184;2023-03-01 12:07:29.400184;;;f;f;f;f;f;f
231;ZAP;65;112;51401;AMBATOVOLA;;;;;;;;;;FALSE;1;2023-03-01 12:07:29.400184;2023-03-01 12:07:29.400184;;;f;f;f;f;f;f
232;ZAP;66;112;51413;ANTANIDITRA;;;;;;;;;;FALSE;1;2023-03-01 12:07:29.400184;2023-03-01 12:07:29.400184;;;f;f;f;f;f;f
233;ZAP;67;112;51402;AMBOASARY;;;;;;;;;;FALSE;1;2023-03-01 12:07:29.400184;2023-03-01 12:07:29.400184;;;f;f;f;f;f;f
234;ZAP;68;112;51409;ANDAINGO;;;;;;;;;;FALSE;1;2023-03-01 12:07:29.400184;2023-03-01 12:07:29.400184;;;f;f;f;f;f;f
235;ZAP;69;112;51403;AMBOHIBARY I;;;;;;;;;;FALSE;1;2023-03-01 12:07:29.400184;2023-03-01 12:07:29.400184;;;f;f;f;f;f;f
236;ZAP;70;112;51426;MORARANO GARA I;;;;;;;;;;FALSE;1;2023-03-01 12:07:29.400184;2023-03-01 12:07:29.400184;;;f;f;f;f;f;f
237;ZAP;71;112;51405;AMBOHIDRONONO;;;;;;;;;;FALSE;1;2023-03-01 12:07:29.400184;2023-03-01 12:07:29.400184;;;f;f;f;f;f;f
238;ZAP;69;112;51404;AMBOHIBARY II;;;;;;;;;;FALSE;1;2023-03-01 12:07:29.400184;2023-03-01 12:07:29.400184;;;f;f;f;f;f;f
239;ZAP;72;112;51422;MANDIALAZA;;;;;;;;;;FALSE;1;2023-03-01 12:07:29.400184;2023-03-01 12:07:29.400184;;;f;f;f;f;f;f
240;ZAP;67;112;51408;ANALASOA;;;;;;;;;;FALSE;1;2023-03-01 12:07:29.400184;2023-03-01 12:07:29.400184;;;f;f;f;f;f;f
241;ZAP;73;112;51406;AMPASIMPOTSY GARA;;;;;;;;;;FALSE;1;2023-03-01 12:07:29.400184;2023-03-01 12:07:29.400184;;;f;f;f;f;f;f
242;ZAP;74;112;51407;AMPASIPOTSY ANTSOROMISY;;;;;;;;;;FALSE;1;2023-03-01 12:07:29.400184;2023-03-01 12:07:29.400184;;;f;f;f;f;f;f
243;ZAP;75;112;51408;ANALASOA;;;;;;;;;;FALSE;1;2023-03-01 12:07:29.400184;2023-03-01 12:07:29.400184;;;f;f;f;f;f;f
244;ZAP;76;112;51412;ANTANANDAVA;;;;;;;;;;FALSE;1;2023-03-01 12:07:29.400184;2023-03-01 12:07:29.400184;;;f;f;f;f;f;f
245;ZAP;77;112;51410;ANDASIBE;;;;;;;;;;FALSE;1;2023-03-01 12:07:29.400184;2023-03-01 12:07:29.400184;;;f;f;f;f;f;f
246;ZAP;78;112;51417;BEMBARY;;;;;;;;;;FALSE;1;2023-03-01 12:07:29.400184;2023-03-01 12:07:29.400184;;;f;f;f;f;f;f
247;ZAP;79;112;51411;ANOSIBE IFODY;;;;;;;;;;FALSE;1;2023-03-01 12:07:29.400184;2023-03-01 12:07:29.400184;;;f;f;f;f;f;f
248;ZAP;80;112;51414;BEFORONA I;;;;;;;;;;FALSE;1;2023-03-01 12:07:29.400184;2023-03-01 12:07:29.400184;;;f;f;f;f;f;f
249;ZAP;81;112;51423;MANGARIVOTRA;;;;;;;;;;FALSE;1;2023-03-01 12:07:29.400184;2023-03-01 12:07:29.400184;;;f;f;f;f;f;f
250;ZAP;82;112;51419;FIERENANA II;;;;;;;;;;FALSE;1;2023-03-01 12:07:29.400184;2023-03-01 12:07:29.400184;;;f;f;f;f;f;f
251;ZAP;83;112;51420;LAKATO I;;;;;;;;;;FALSE;1;2023-03-01 12:07:29.400184;2023-03-01 12:07:29.400184;;;f;f;f;f;f;f
252;ZAP;70;112;51427;MORARANO GARA II;;;;;;;;;;FALSE;1;2023-03-01 12:07:29.400184;2023-03-01 12:07:29.400184;;;f;f;f;f;f;f
253;ZAP;84;112;51416;BELAVABARY;;;;;;;;;;FALSE;1;2023-03-01 12:07:29.400184;2023-03-01 12:07:29.400184;;;f;f;f;f;f;f
254;ZAP;85;112;51424;MORAMANGA I;;;;;;;;;;FALSE;1;2023-03-01 12:07:29.400184;2023-03-01 12:07:29.400184;;;f;f;f;f;f;f
255;ZAP;86;112;51428;SABOTSY ANJIRO;;;;;;;;;;FALSE;1;2023-03-01 12:07:29.400184;2023-03-01 12:07:29.400184;;;f;f;f;f;f;f
256;ZAP;87;112;51429;VODIRIANA;;;;;;;;;;FALSE;1;2023-03-01 12:07:29.400184;2023-03-01 12:07:29.400184;;;f;f;f;f;f;f
257;ZAP;82;112;51418;FIERENANA I;;;;;;;;;;FALSE;1;2023-03-01 12:07:29.400184;2023-03-01 12:07:29.400184;;;f;f;f;f;f;f
258;ZAP;85;112;51425;MORAMANGA II;;;;;;;;;;FALSE;1;2023-03-01 12:07:29.400184;2023-03-01 12:07:29.400184;;;f;f;f;f;f;f
259;ZAP;83;112;51421;LAKATO II;;;;;;;;;;FALSE;1;2023-03-01 12:07:29.400184;2023-03-01 12:07:29.400184;;;f;f;f;f;f;f
260;ZAP;80;112;51415;BEFORONA II;;;;;;;;;;FALSE;1;2023-03-01 12:07:29.400184;2023-03-01 12:07:29.400184;;;f;f;f;f;f;f
261;ZAP;88;56;30408;ITREMO NORD;;;;;;;;;;FALSE;1;2023-03-01 12:07:29.400184;2023-03-01 12:07:29.400184;;;f;f;f;f;f;f
262;ZAP;89;56;30401;AMBATOFINANDRAHANA NORD;;;;;;;;;;FALSE;1;2023-03-01 12:07:29.400184;2023-03-01 12:07:29.400184;;;f;f;f;f;f;f
263;ZAP;90;56;30403;AMBATOMIFANONGOA;;;;;;;;;;FALSE;1;2023-03-01 12:07:29.400184;2023-03-01 12:07:29.400184;;;f;f;f;f;f;f
264;ZAP;91;56;30404;AMBONDROMISOTRA;;;;;;;;;;FALSE;1;2023-03-01 12:07:29.400184;2023-03-01 12:07:29.400184;;;f;f;f;f;f;f
265;ZAP;92;56;30405;AMBOROMPOTSY;;;;;;;;;;FALSE;1;2023-03-01 12:07:29.400184;2023-03-01 12:07:29.400184;;;f;f;f;f;f;f
266;ZAP;93;56;30407;FENOARIVO B;;;;;;;;;;FALSE;1;2023-03-01 12:07:29.400184;2023-03-01 12:07:29.400184;;;f;f;f;f;f;f
267;ZAP;93;56;30406;FENOARIVO A;;;;;;;;;;FALSE;1;2023-03-01 12:07:29.400184;2023-03-01 12:07:29.400184;;;f;f;f;f;f;f
268;ZAP;88;56;30409;ITREMO SUD;;;;;;;;;;FALSE;1;2023-03-01 12:07:29.400184;2023-03-01 12:07:29.400184;;;f;f;f;f;f;f
269;ZAP;94;56;30410;MANDROSONORO;;;;;;;;;;FALSE;1;2023-03-01 12:07:29.400184;2023-03-01 12:07:29.400184;;;f;f;f;f;f;f
270;ZAP;95;56;30411;MANGATABOAHANGY;;;;;;;;;;FALSE;1;2023-03-01 12:07:29.400184;2023-03-01 12:07:29.400184;;;f;f;f;f;f;f
271;ZAP;96;56;30413;SOAVINA B;;;;;;;;;;FALSE;1;2023-03-01 12:07:29.400184;2023-03-01 12:07:29.400184;;;f;f;f;f;f;f
272;ZAP;96;56;30412;SOAVINA A;;;;;;;;;;FALSE;1;2023-03-01 12:07:29.400184;2023-03-01 12:07:29.400184;;;f;f;f;f;f;f
273;ZAP;89;56;30402;AMBATOFINANDRAHANA SUD;;;;;;;;;;FALSE;1;2023-03-01 12:07:29.400184;2023-03-01 12:07:29.400184;;;f;f;f;f;f;f
274;ZAP;97;58;30611;AMBOSITRA ID;;;;;;;;;;FALSE;1;2023-03-01 12:07:29.400184;2023-03-01 12:07:29.400184;;;f;f;f;f;f;f
275;ZAP;97;58;30610;AMBOSITRA IB;;;;;;;;;;FALSE;1;2023-03-01 12:07:29.400184;2023-03-01 12:07:29.400184;;;f;f;f;f;f;f
276;ZAP;98;58;30601;ALAKAMISY AMBOHIJATO;;;;;;;;;;FALSE;1;2023-03-01 12:07:29.400184;2023-03-01 12:07:29.400184;;;f;f;f;f;f;f
277;ZAP;99;58;30602;AMBALAMANAKANA;;;;;;;;;;FALSE;1;2023-03-01 12:07:29.400184;2023-03-01 12:07:29.400184;;;f;f;f;f;f;f
278;ZAP;100;58;30603;AMBATOFITORAHANA;;;;;;;;;;FALSE;1;2023-03-01 12:07:29.400184;2023-03-01 12:07:29.400184;;;f;f;f;f;f;f
279;ZAP;101;58;30604;AMBINANINDRANO I;;;;;;;;;;FALSE;1;2023-03-01 12:07:29.400184;2023-03-01 12:07:29.400184;;;f;f;f;f;f;f
280;ZAP;102;58;30607;AMBOHIMITOMBO I;;;;;;;;;;FALSE;1;2023-03-01 12:07:29.400184;2023-03-01 12:07:29.400184;;;f;f;f;f;f;f
281;ZAP;103;58;30612;AMBOSITRA II;;;;;;;;;;FALSE;1;2023-03-01 12:07:29.400184;2023-03-01 12:07:29.400184;;;f;f;f;f;f;f
282;ZAP;104;58;30613;ANDINA;;;;;;;;;;FALSE;1;2023-03-01 12:07:29.400184;2023-03-01 12:07:29.400184;;;f;f;f;f;f;f
283;ZAP;105;58;30614;ANKAZOAMBO;;;;;;;;;;FALSE;1;2023-03-01 12:07:29.400184;2023-03-01 12:07:29.400184;;;f;f;f;f;f;f
284;ZAP;106;58;30615;ANTOETRA I;;;;;;;;;;FALSE;1;2023-03-01 12:07:29.400184;2023-03-01 12:07:29.400184;;;f;f;f;f;f;f
285;ZAP;107;58;30617;FAHIZAY;;;;;;;;;;FALSE;1;2023-03-01 12:07:29.400184;2023-03-01 12:07:29.400184;;;f;f;f;f;f;f
286;ZAP;108;58;30618;IHADILANANA;;;;;;;;;;FALSE;1;2023-03-01 12:07:29.400184;2023-03-01 12:07:29.400184;;;f;f;f;f;f;f
287;ZAP;109;58;30619;ILAKA CENTRE;;;;;;;;;;FALSE;1;2023-03-01 12:07:29.400184;2023-03-01 12:07:29.400184;;;f;f;f;f;f;f
288;ZAP;110;58;30620;IMERINA IMADY;;;;;;;;;;FALSE;1;2023-03-01 12:07:29.400184;2023-03-01 12:07:29.400184;;;f;f;f;f;f;f
289;ZAP;111;58;30621;IVATO CENTRE;;;;;;;;;;FALSE;1;2023-03-01 12:07:29.400184;2023-03-01 12:07:29.400184;;;f;f;f;f;f;f
290;ZAP;112;58;30624;MAHAZINA AMBOHIPIERENANA;;;;;;;;;;FALSE;1;2023-03-01 12:07:29.400184;2023-03-01 12:07:29.400184;;;f;f;f;f;f;f
291;ZAP;113;58;30622;IVONY MIARAMIASA;;;;;;;;;;FALSE;1;2023-03-01 12:07:29.400184;2023-03-01 12:07:29.400184;;;f;f;f;f;f;f
292;ZAP;114;58;30623;KIANJANDRAKEFINA;;;;;;;;;;FALSE;1;2023-03-01 12:07:29.400184;2023-03-01 12:07:29.400184;;;f;f;f;f;f;f
293;ZAP;115;58;30625;MAROSOA;;;;;;;;;;FALSE;1;2023-03-01 12:07:29.400184;2023-03-01 12:07:29.400184;;;f;f;f;f;f;f
294;ZAP;116;58;30606;AMBOHIMANJAKA;;;;;;;;;;FALSE;1;2023-03-01 12:07:29.400184;2023-03-01 12:07:29.400184;;;f;f;f;f;f;f
295;ZAP;117;58;30627;TSARASAOTRA II;;;;;;;;;;FALSE;1;2023-03-01 12:07:29.400184;2023-03-01 12:07:29.400184;;;f;f;f;f;f;f
296;ZAP;117;58;30626;TSARASAOTRA I;;;;;;;;;;FALSE;1;2023-03-01 12:07:29.400184;2023-03-01 12:07:29.400184;;;f;f;f;f;f;f
297;ZAP;118;58;30628;VOHIDAHY;;;;;;;;;;FALSE;1;2023-03-01 12:07:29.400184;2023-03-01 12:07:29.400184;;;f;f;f;f;f;f
298;ZAP;97;58;30609;AMBOSITRA IA;;;;;;;;;;FALSE;1;2023-03-01 12:07:29.400184;2023-03-01 12:07:29.400184;;;f;f;f;f;f;f
299;ZAP;101;58;30605;AMBINANINDRANO II;;;;;;;;;;FALSE;1;2023-03-01 12:07:29.400184;2023-03-01 12:07:29.400184;;;f;f;f;f;f;f
300;ZAP;119;58;30608;AMBOHIMITOMBO II;;;;;;;;;;FALSE;1;2023-03-01 12:07:29.400184;2023-03-01 12:07:29.400184;;;f;f;f;f;f;f
301;ZAP;106;58;30616;ANTOETRA II;;;;;;;;;;FALSE;1;2023-03-01 12:07:29.400184;2023-03-01 12:07:29.400184;;;f;f;f;f;f;f
302;ZAP;120;58;30619;ILAKA CENTRE;;;;;;;;;;FALSE;1;2023-03-01 12:07:29.400184;2023-03-01 12:07:29.400184;;;f;f;f;f;f;f
303;ZAP;121;58;30608;AMBOHIMITOMBO II;;;;;;;;;;FALSE;1;2023-03-01 12:07:29.400184;2023-03-01 12:07:29.400184;;;f;f;f;f;f;f
304;ZAP;122;60;30814;MIARINAVARATRA I;;;;;;;;;;FALSE;1;2023-03-01 12:07:29.400184;2023-03-01 12:07:29.400184;;;f;f;f;f;f;f
305;ZAP;123;60;30805;FANDRIANA I;;;;;;;;;;FALSE;1;2023-03-01 12:07:29.400184;2023-03-01 12:07:29.400184;;;f;f;f;f;f;f
306;ZAP;124;60;30801;ALAKAMISY AMBOHIMAHAZO I;;;;;;;;;;FALSE;1;2023-03-01 12:07:29.400184;2023-03-01 12:07:29.400184;;;f;f;f;f;f;f
307;ZAP;124;60;30802;ALAKAMISY AMBOHIMAHAZO II;;;;;;;;;;FALSE;1;2023-03-01 12:07:29.400184;2023-03-01 12:07:29.400184;;;f;f;f;f;f;f
308;ZAP;125;60;30803;ANKARINORO;;;;;;;;;;FALSE;1;2023-03-01 12:07:29.400184;2023-03-01 12:07:29.400184;;;f;f;f;f;f;f
309;ZAP;126;60;30804;BETSIMISOTRA;;;;;;;;;;FALSE;1;2023-03-01 12:07:29.400184;2023-03-01 12:07:29.400184;;;f;f;f;f;f;f
310;ZAP;123;60;30806;FANDRIANA II;;;;;;;;;;FALSE;1;2023-03-01 12:07:29.400184;2023-03-01 12:07:29.400184;;;f;f;f;f;f;f
311;ZAP;123;60;30807;FANDRIANA III;;;;;;;;;;FALSE;1;2023-03-01 12:07:29.400184;2023-03-01 12:07:29.400184;;;f;f;f;f;f;f
312;ZAP;127;60;30809;FIADANANA II;;;;;;;;;;FALSE;1;2023-03-01 12:07:29.400184;2023-03-01 12:07:29.400184;;;f;f;f;f;f;f
313;ZAP;127;60;30808;FIADANANA I;;;;;;;;;;FALSE;1;2023-03-01 12:07:29.400184;2023-03-01 12:07:29.400184;;;f;f;f;f;f;f
314;ZAP;128;60;30810;IMITO I;;;;;;;;;;FALSE;1;2023-03-01 12:07:29.400184;2023-03-01 12:07:29.400184;;;f;f;f;f;f;f
315;ZAP;128;60;30811;IMITO II;;;;;;;;;;FALSE;1;2023-03-01 12:07:29.400184;2023-03-01 12:07:29.400184;;;f;f;f;f;f;f
316;ZAP;129;60;30812;ISANDRANDAHY AMBONY;;;;;;;;;;FALSE;1;2023-03-01 12:07:29.400184;2023-03-01 12:07:29.400184;;;f;f;f;f;f;f
317;ZAP;130;60;30813;MAHAZOARIVO;;;;;;;;;;FALSE;1;2023-03-01 12:07:29.400184;2023-03-01 12:07:29.400184;;;f;f;f;f;f;f
318;ZAP;122;60;30816;MIARINAVARATRA III;;;;;;;;;;FALSE;1;2023-03-01 12:07:29.400184;2023-03-01 12:07:29.400184;;;f;f;f;f;f;f
319;ZAP;122;60;30815;MIARINAVARATRA II;;;;;;;;;;FALSE;1;2023-03-01 12:07:29.400184;2023-03-01 12:07:29.400184;;;f;f;f;f;f;f
320;ZAP;131;60;30817;MILAMAINA;;;;;;;;;;FALSE;1;2023-03-01 12:07:29.400184;2023-03-01 12:07:29.400184;;;f;f;f;f;f;f
321;ZAP;132;60;30818;SAHAMADIO I;;;;;;;;;;FALSE;1;2023-03-01 12:07:29.400184;2023-03-01 12:07:29.400184;;;f;f;f;f;f;f
322;ZAP;132;60;30819;SAHAMADIO II;;;;;;;;;;FALSE;1;2023-03-01 12:07:29.400184;2023-03-01 12:07:29.400184;;;f;f;f;f;f;f
323;ZAP;133;60;30820;SANDRANDAHY I;;;;;;;;;;FALSE;1;2023-03-01 12:07:29.400184;2023-03-01 12:07:29.400184;;;f;f;f;f;f;f
324;ZAP;133;60;30822;SANDRANDAHY III;;;;;;;;;;FALSE;1;2023-03-01 12:07:29.400184;2023-03-01 12:07:29.400184;;;f;f;f;f;f;f
325;ZAP;133;60;30821;SANDRANDAHY II;;;;;;;;;;FALSE;1;2023-03-01 12:07:29.400184;2023-03-01 12:07:29.400184;;;f;f;f;f;f;f
326;ZAP;133;60;30823;SANDRANDAHY IV;;;;;;;;;;FALSE;1;2023-03-01 12:07:29.400184;2023-03-01 12:07:29.400184;;;f;f;f;f;f;f
327;ZAP;134;60;30828;TSARAZAZA IV;;;;;;;;;;FALSE;1;2023-03-01 12:07:29.400184;2023-03-01 12:07:29.400184;;;f;f;f;f;f;f
328;ZAP;134;60;30827;TSARAZAZA III;;;;;;;;;;FALSE;1;2023-03-01 12:07:29.400184;2023-03-01 12:07:29.400184;;;f;f;f;f;f;f
329;ZAP;135;60;30806;FANDRIANA II;;;;;;;;;;FALSE;1;2023-03-01 12:07:29.400184;2023-03-01 12:07:29.400184;;;f;f;f;f;f;f
330;ZAP;130;60;30812;ISANDRANDAHY AMBONY;;;;;;;;;;FALSE;1;2023-03-01 12:07:29.400184;2023-03-01 12:07:29.400184;;;f;f;f;f;f;f
331;ZAP;135;60;30815;MIARINAVARATRA II;;;;;;;;;;FALSE;1;2023-03-01 12:07:29.400184;2023-03-01 12:07:29.400184;;;f;f;f;f;f;f
332;ZAP;136;60;30824;TATAMALAZA;;;;;;;;;;FALSE;1;2023-03-01 12:07:29.400184;2023-03-01 12:07:29.400184;;;f;f;f;f;f;f
333;ZAP;122;60;30824;TATAMALAZA;;;;;;;;;;FALSE;1;2023-03-01 12:07:29.400184;2023-03-01 12:07:29.400184;;;f;f;f;f;f;f
334;ZAP;134;60;30826;TSARAZAZA II;;;;;;;;;;FALSE;1;2023-03-01 12:07:29.400184;2023-03-01 12:07:29.400184;;;f;f;f;f;f;f
335;ZAP;134;60;30825;TSARAZAZA I;;;;;;;;;;FALSE;1;2023-03-01 12:07:29.400184;2023-03-01 12:07:29.400184;;;f;f;f;f;f;f
336;ZAP;137;75;32301;AMBATOMARINA;;;;;;;;;;FALSE;1;2023-03-01 12:07:29.400184;2023-03-01 12:07:29.400184;;;f;f;f;f;f;f
337;ZAP;138;75;32302;AMBOHIMAHAZO;;;;;;;;;;FALSE;1;2023-03-01 12:07:29.400184;2023-03-01 12:07:29.400184;;;f;f;f;f;f;f
338;ZAP;139;75;32302;AMBOHIMAHAZO;;;;;;;;;;FALSE;1;2023-03-01 12:07:29.400184;2023-03-01 12:07:29.400184;;;f;f;f;f;f;f
339;ZAP;140;75;32303;AMBOHIMILANJA;;;;;;;;;;FALSE;1;2023-03-01 12:07:29.400184;2023-03-01 12:07:29.400184;;;f;f;f;f;f;f
340;ZAP;141;75;32304;AMBOHIPO;;;;;;;;;;FALSE;1;2023-03-01 12:07:29.400184;2023-03-01 12:07:29.400184;;;f;f;f;f;f;f
341;ZAP;142;75;32305;AMBOVOMBE CENTRE I;;;;;;;;;;FALSE;1;2023-03-01 12:07:29.400184;2023-03-01 12:07:29.400184;;;f;f;f;f;f;f
342;ZAP;143;75;32308;ANJOMA NANDIHIZANA;;;;;;;;;;FALSE;1;2023-03-01 12:07:29.400184;2023-03-01 12:07:29.400184;;;f;f;f;f;f;f
343;ZAP;144;75;32309;ANJOMAN'ANKONA;;;;;;;;;;FALSE;1;2023-03-01 12:07:29.400184;2023-03-01 12:07:29.400184;;;f;f;f;f;f;f
344;ZAP;145;75;32310;TALATA VOHIMENA;;;;;;;;;;FALSE;1;2023-03-01 12:07:29.400184;2023-03-01 12:07:29.400184;;;f;f;f;f;f;f
345;ZAP;146;75;32311;VINANY ANDAKATANIKELY;;;;;;;;;;FALSE;1;2023-03-01 12:07:29.400184;2023-03-01 12:07:29.400184;;;f;f;f;f;f;f
346;ZAP;147;75;32301;AMBATOMARINA;;;;;;;;;;FALSE;1;2023-03-01 12:07:29.400184;2023-03-01 12:07:29.400184;;;f;f;f;f;f;f
347;ZAP;142;75;32306;AMBOVOMBE CENTRE II;;;;;;;;;;FALSE;1;2023-03-01 12:07:29.400184;2023-03-01 12:07:29.400184;;;f;f;f;f;f;f
348;ZAP;148;75;32307;ANDAKATANY;;;;;;;;;;FALSE;1;2023-03-01 12:07:29.400184;2023-03-01 12:07:29.400184;;;f;f;f;f;f;f
349;ZAP;149;31;10803;ANKAZOBE;;;;;;;;;;FALSE;1;2023-03-01 12:07:29.400184;2023-03-01 12:07:29.400184;;;f;f;f;f;f;f
350;ZAP;150;31;10801;AMBOHITROMBY;;;;;;;;;;FALSE;1;2023-03-01 12:07:29.400184;2023-03-01 12:07:29.400184;;;f;f;f;f;f;f
351;ZAP;151;31;10805;ANTOTOHAZO;;;;;;;;;;FALSE;1;2023-03-01 12:07:29.400184;2023-03-01 12:07:29.400184;;;f;f;f;f;f;f
352;ZAP;152;31;10807;FIHAONANA;;;;;;;;;;FALSE;1;2023-03-01 12:07:29.400184;2023-03-01 12:07:29.400184;;;f;f;f;f;f;f
353;ZAP;153;31;10810;MARONDRY;;;;;;;;;;FALSE;1;2023-03-01 12:07:29.400184;2023-03-01 12:07:29.400184;;;f;f;f;f;f;f
354;ZAP;154;31;10806;FIADANANA;;;;;;;;;;FALSE;1;2023-03-01 12:07:29.400184;2023-03-01 12:07:29.400184;;;f;f;f;f;f;f
355;ZAP;155;31;10812;TALATA ANGAVO;;;;;;;;;;FALSE;1;2023-03-01 12:07:29.400184;2023-03-01 12:07:29.400184;;;f;f;f;f;f;f
356;ZAP;156;31;10808;KIANGARA;;;;;;;;;;FALSE;1;2023-03-01 12:07:29.400184;2023-03-01 12:07:29.400184;;;f;f;f;f;f;f
357;ZAP;157;31;10809;MAHAVELONA;;;;;;;;;;FALSE;1;2023-03-01 12:07:29.400184;2023-03-01 12:07:29.400184;;;f;f;f;f;f;f
358;ZAP;158;31;10811;MIANTSO;;;;;;;;;;FALSE;1;2023-03-01 12:07:29.400184;2023-03-01 12:07:29.400184;;;f;f;f;f;f;f
359;ZAP;159;31;10812;TALATA ANGAVO;;;;;;;;;;FALSE;1;2023-03-01 12:07:29.400184;2023-03-01 12:07:29.400184;;;f;f;f;f;f;f
360;ZAP;160;31;10813;TSARAMASOANDRO;;;;;;;;;;FALSE;1;2023-03-01 12:07:29.400184;2023-03-01 12:07:29.400184;;;f;f;f;f;f;f
361;ZAP;161;31;10813;TSARAMASOANDRO;;;;;;;;;;FALSE;1;2023-03-01 12:07:29.400184;2023-03-01 12:07:29.400184;;;f;f;f;f;f;f
362;ZAP;162;31;10802;AMBOLOTARAKELY;;;;;;;;;;FALSE;1;2023-03-01 12:07:29.400184;2023-03-01 12:07:29.400184;;;f;f;f;f;f;f
363;ZAP;163;31;10804;ANTAKAVANA;;;;;;;;;;FALSE;1;2023-03-01 12:07:29.400184;2023-03-01 12:07:29.400184;;;f;f;f;f;f;f
364;ZAP;164;26;10301;ALASORA;;;;;;;;;;FALSE;1;2023-03-01 12:07:29.400184;2023-03-01 12:07:29.400184;;;f;f;f;f;f;f
365;ZAP;165;26;10302;AMBOHIDRABIBY;;;;;;;;;;FALSE;1;2023-03-01 12:07:29.400184;2023-03-01 12:07:29.400184;;;f;f;f;f;f;f
366;ZAP;166;26;10303;AMBOHIMALAZA;;;;;;;;;;FALSE;1;2023-03-01 12:07:29.400184;2023-03-01 12:07:29.400184;;;f;f;f;f;f;f
367;ZAP;167;26;10304;AMBOHIMANAMBOLA;;;;;;;;;;FALSE;1;2023-03-01 12:07:29.400184;2023-03-01 12:07:29.400184;;;f;f;f;f;f;f
368;ZAP;168;26;10305;AMBOHIMANGA ROVA;;;;;;;;;;FALSE;1;2023-03-01 12:07:29.400184;2023-03-01 12:07:29.400184;;;f;f;f;f;f;f
369;ZAP;169;26;10306;AMBOHIMANGAKELY;;;;;;;;;;FALSE;1;2023-03-01 12:07:29.400184;2023-03-01 12:07:29.400184;;;f;f;f;f;f;f
370;ZAP;170;26;10307;ANDRANOVELONA;;;;;;;;;;FALSE;1;2023-03-01 12:07:29.400184;2023-03-01 12:07:29.400184;;;f;f;f;f;f;f
371;ZAP;171;26;10308;ANJEVA GARA;;;;;;;;;;FALSE;1;2023-03-01 12:07:29.400184;2023-03-01 12:07:29.400184;;;f;f;f;f;f;f
372;ZAP;170;26;10309;ANKADIKELY EST;;;;;;;;;;FALSE;1;2023-03-01 12:07:29.400184;2023-03-01 12:07:29.400184;;;f;f;f;f;f;f
373;ZAP;170;26;10310;ANKADIKELY OUEST;;;;;;;;;;FALSE;1;2023-03-01 12:07:29.400184;2023-03-01 12:07:29.400184;;;f;f;f;f;f;f
374;ZAP;172;26;10311;ANKADINANDRIANA NORD;;;;;;;;;;FALSE;1;2023-03-01 12:07:29.400184;2023-03-01 12:07:29.400184;;;f;f;f;f;f;f
375;ZAP;172;26;10312;ANKADINANDRIANA SUD;;;;;;;;;;FALSE;1;2023-03-01 12:07:29.400184;2023-03-01 12:07:29.400184;;;f;f;f;f;f;f
376;ZAP;173;26;10313;ANOSY AVARATRA;;;;;;;;;;FALSE;1;2023-03-01 12:07:29.400184;2023-03-01 12:07:29.400184;;;f;f;f;f;f;f
377;ZAP;169;26;10314;ATSIMOMBOHITRA;;;;;;;;;;FALSE;1;2023-03-01 12:07:29.400184;2023-03-01 12:07:29.400184;;;f;f;f;f;f;f
378;ZAP;174;26;10315;ATSINANANTSENA;;;;;;;;;;FALSE;1;2023-03-01 12:07:29.400184;2023-03-01 12:07:29.400184;;;f;f;f;f;f;f
379;ZAP;175;26;10316;FIAFERANA;;;;;;;;;;FALSE;1;2023-03-01 12:07:29.400184;2023-03-01 12:07:29.400184;;;f;f;f;f;f;f
380;ZAP;176;26;10317;MANANDRIANA;;;;;;;;;;FALSE;1;2023-03-01 12:07:29.400184;2023-03-01 12:07:29.400184;;;f;f;f;f;f;f
381;ZAP;168;26;10318;MANANKASINA ANOSIARIVO;;;;;;;;;;FALSE;1;2023-03-01 12:07:29.400184;2023-03-01 12:07:29.400184;;;f;f;f;f;f;f
382;ZAP;177;26;10319;MASINDRAY;;;;;;;;;;FALSE;1;2023-03-01 12:07:29.400184;2023-03-01 12:07:29.400184;;;f;f;f;f;f;f
383;ZAP;178;26;10320;TALATA VOLONONDRY NORD;;;;;;;;;;FALSE;1;2023-03-01 12:07:29.400184;2023-03-01 12:07:29.400184;;;f;f;f;f;f;f
384;ZAP;178;26;10321;TALATA VOLONONDRY SUD;;;;;;;;;;FALSE;1;2023-03-01 12:07:29.400184;2023-03-01 12:07:29.400184;;;f;f;f;f;f;f
385;ZAP;179;26;10322;VILIAHAZO;;;;;;;;;;FALSE;1;2023-03-01 12:07:29.400184;2023-03-01 12:07:29.400184;;;f;f;f;f;f;f
386;ZAP;180;24;10106;ANTANANARIVO VI;;;;;;;;;;FALSE;1;2023-03-01 12:07:29.400184;2023-03-01 12:07:29.400184;;;f;f;f;f;f;f
387;ZAP;181;24;10103;ANTANANARIVO III;;;;;;;;;;FALSE;1;2023-03-01 12:07:29.400184;2023-03-01 12:07:29.400184;;;f;f;f;f;f;f
388;ZAP;182;24;10101;ANTANANARIVO I;;;;;;;;;;FALSE;1;2023-03-01 12:07:29.400184;2023-03-01 12:07:29.400184;;;f;f;f;f;f;f
389;ZAP;183;24;10105;ANTANANARIVO V;;;;;;;;;;FALSE;1;2023-03-01 12:07:29.400184;2023-03-01 12:07:29.400184;;;f;f;f;f;f;f
390;ZAP;184;24;10104;ANTANANARIVO IV;;;;;;;;;;FALSE;1;2023-03-01 12:07:29.400184;2023-03-01 12:07:29.400184;;;f;f;f;f;f;f
391;ZAP;185;24;10102;ANTANANARIVO II;;;;;;;;;;FALSE;1;2023-03-01 12:07:29.400184;2023-03-01 12:07:29.400184;;;f;f;f;f;f;f
392;ZAP;180;24;10102;ANTANANARIVO II;;;;;;;;;;FALSE;1;2023-03-01 12:07:29.400184;2023-03-01 12:07:29.400184;;;f;f;f;f;f;f
393;ZAP;184;24;10102;ANTANANARIVO II;;;;;;;;;;FALSE;1;2023-03-01 12:07:29.400184;2023-03-01 12:07:29.400184;;;f;f;f;f;f;f
394;ZAP;186;25;10207;AMPANEFY;;;;;;;;;;FALSE;1;2023-03-01 12:07:29.400184;2023-03-01 12:07:29.400184;;;f;f;f;f;f;f
395;ZAP;187;25;10201;AMBALAVAO;;;;;;;;;;FALSE;1;2023-03-01 12:07:29.400184;2023-03-01 12:07:29.400184;;;f;f;f;f;f;f
396;ZAP;188;25;10221;TSARARIVOTRA;;;;;;;;;;FALSE;1;2023-03-01 12:07:29.400184;2023-03-01 12:07:29.400184;;;f;f;f;f;f;f
397;ZAP;189;25;10202;AMBATOFAHAVALO;;;;;;;;;;FALSE;1;2023-03-01 12:07:29.400184;2023-03-01 12:07:29.400184;;;f;f;f;f;f;f
398;ZAP;190;25;10204;AMBOHIDRAPETO;;;;;;;;;;FALSE;1;2023-03-01 12:07:29.400184;2023-03-01 12:07:29.400184;;;f;f;f;f;f;f
399;ZAP;191;25;10205;AMBOHIJANAKA;;;;;;;;;;FALSE;1;2023-03-01 12:07:29.400184;2023-03-01 12:07:29.400184;;;f;f;f;f;f;f
400;ZAP;192;25;10208;AMPITATAFIKA;;;;;;;;;;FALSE;1;2023-03-01 12:07:29.400184;2023-03-01 12:07:29.400184;;;f;f;f;f;f;f
401;ZAP;193;25;10209;ANDOHARANOFOTSY;;;;;;;;;;FALSE;1;2023-03-01 12:07:29.400184;2023-03-01 12:07:29.400184;;;f;f;f;f;f;f
402;ZAP;194;25;10210;ANDRANONAHOATRA;;;;;;;;;;FALSE;1;2023-03-01 12:07:29.400184;2023-03-01 12:07:29.400184;;;f;f;f;f;f;f
403;ZAP;195;25;10211;ANDROHIBE;;;;;;;;;;FALSE;1;2023-03-01 12:07:29.400184;2023-03-01 12:07:29.400184;;;f;f;f;f;f;f
404;ZAP;196;25;10213;ANKARAOBATO;;;;;;;;;;FALSE;1;2023-03-01 12:07:29.400184;2023-03-01 12:07:29.400184;;;f;f;f;f;f;f
405;ZAP;197;25;10206;AMBOHIJOKY;;;;;;;;;;FALSE;1;2023-03-01 12:07:29.400184;2023-03-01 12:07:29.400184;;;f;f;f;f;f;f
406;ZAP;198;25;10214;BEMASOANDRO;;;;;;;;;;FALSE;1;2023-03-01 12:07:29.400184;2023-03-01 12:07:29.400184;;;f;f;f;f;f;f
407;ZAP;199;25;10212;ANJOMAKELY;;;;;;;;;;FALSE;1;2023-03-01 12:07:29.400184;2023-03-01 12:07:29.400184;;;f;f;f;f;f;f
408;ZAP;200;25;10215;FENOARIVO;;;;;;;;;;FALSE;1;2023-03-01 12:07:29.400184;2023-03-01 12:07:29.400184;;;f;f;f;f;f;f
409;ZAP;201;25;10217;ITAOSY;;;;;;;;;;FALSE;1;2023-03-01 12:07:29.400184;2023-03-01 12:07:29.400184;;;f;f;f;f;f;f
410;ZAP;202;25;10203;AMBAVAHADITOKANA;;;;;;;;;;FALSE;1;2023-03-01 12:07:29.400184;2023-03-01 12:07:29.400184;;;f;f;f;f;f;f
411;ZAP;203;25;10218;SOALANDY;;;;;;;;;;FALSE;1;2023-03-01 12:07:29.400184;2023-03-01 12:07:29.400184;;;f;f;f;f;f;f
412;ZAP;204;25;10220;TANJOMBATO;;;;;;;;;;FALSE;1;2023-03-01 12:07:29.400184;2023-03-01 12:07:29.400184;;;f;f;f;f;f;f
413;ZAP;205;25;10211;ANDROHIBE;;;;;;;;;;FALSE;1;2023-03-01 12:07:29.400184;2023-03-01 12:07:29.400184;;;f;f;f;f;f;f
414;ZAP;206;25;10218;SOALANDY;;;;;;;;;;FALSE;1;2023-03-01 12:07:29.400184;2023-03-01 12:07:29.400184;;;f;f;f;f;f;f
415;ZAP;207;25;10216;FIOMBONANA;;;;;;;;;;FALSE;1;2023-03-01 12:07:29.400184;2023-03-01 12:07:29.400184;;;f;f;f;f;f;f
416;ZAP;208;25;10216;FIOMBONANA;;;;;;;;;;FALSE;1;2023-03-01 12:07:29.400184;2023-03-01 12:07:29.400184;;;f;f;f;f;f;f
417;ZAP;209;25;10219;SOAVINA;;;;;;;;;;FALSE;1;2023-03-01 12:07:29.400184;2023-03-01 12:07:29.400184;;;f;f;f;f;f;f
418;ZAP;210;25;10219;SOAVINA;;;;;;;;;;FALSE;1;2023-03-01 12:07:29.400184;2023-03-01 12:07:29.400184;;;f;f;f;f;f;f
419;ZAP;211;25;10215;FENOARIVO;;;;;;;;;;FALSE;1;2023-03-01 12:07:29.400184;2023-03-01 12:07:29.400184;;;f;f;f;f;f;f
420;ZAP;212;28;10501;AMBATO;;;;;;;;;;FALSE;1;2023-03-01 12:07:29.400184;2023-03-01 12:07:29.400184;;;f;f;f;f;f;f
421;ZAP;213;28;10502;AMBATOLAMPY TSIMAHAFOTSY;;;;;;;;;;FALSE;1;2023-03-01 12:07:29.400184;2023-03-01 12:07:29.400184;;;f;f;f;f;f;f
422;ZAP;214;28;10503;AMBOHIDRATRIMO;;;;;;;;;;FALSE;1;2023-03-01 12:07:29.400184;2023-03-01 12:07:29.400184;;;f;f;f;f;f;f
423;ZAP;215;28;10504;AMBOHIMANJAKA;;;;;;;;;;FALSE;1;2023-03-01 12:07:29.400184;2023-03-01 12:07:29.400184;;;f;f;f;f;f;f
424;ZAP;216;28;10505;AMBOHIPIHAONANA;;;;;;;;;;FALSE;1;2023-03-01 12:07:29.400184;2023-03-01 12:07:29.400184;;;f;f;f;f;f;f
425;ZAP;217;28;10506;AMBOHITRIMANJAKA;;;;;;;;;;FALSE;1;2023-03-01 12:07:29.400184;2023-03-01 12:07:29.400184;;;f;f;f;f;f;f
426;ZAP;218;28;10507;AMPANGABE;;;;;;;;;;FALSE;1;2023-03-01 12:07:29.400184;2023-03-01 12:07:29.400184;;;f;f;f;f;f;f
427;ZAP;219;28;10508;AMPANOTOKANA;;;;;;;;;;FALSE;1;2023-03-01 12:07:29.400184;2023-03-01 12:07:29.400184;;;f;f;f;f;f;f
428;ZAP;220;28;10509;ANJANADORIA;;;;;;;;;;FALSE;1;2023-03-01 12:07:29.400184;2023-03-01 12:07:29.400184;;;f;f;f;f;f;f
429;ZAP;221;28;10510;ANOSIALA;;;;;;;;;;FALSE;1;2023-03-01 12:07:29.400184;2023-03-01 12:07:29.400184;;;f;f;f;f;f;f
430;ZAP;222;28;10511;ANTANETIBE MAHAZAZA;;;;;;;;;;FALSE;1;2023-03-01 12:07:29.400184;2023-03-01 12:07:29.400184;;;f;f;f;f;f;f
431;ZAP;223;28;10512;ANTEHIROKA;;;;;;;;;;FALSE;1;2023-03-01 12:07:29.400184;2023-03-01 12:07:29.400184;;;f;f;f;f;f;f
432;ZAP;224;28;10513;AVARATSENA;;;;;;;;;;FALSE;1;2023-03-01 12:07:29.400184;2023-03-01 12:07:29.400184;;;f;f;f;f;f;f
433;ZAP;225;28;10514;FIADANANA;;;;;;;;;;FALSE;1;2023-03-01 12:07:29.400184;2023-03-01 12:07:29.400184;;;f;f;f;f;f;f
434;ZAP;226;28;10515;IARINARIVO;;;;;;;;;;FALSE;1;2023-03-01 12:07:29.400184;2023-03-01 12:07:29.400184;;;f;f;f;f;f;f
435;ZAP;227;28;10522;MERIMANDROSO;;;;;;;;;;FALSE;1;2023-03-01 12:07:29.400184;2023-03-01 12:07:29.400184;;;f;f;f;f;f;f
436;ZAP;228;28;10516;IVATO;;;;;;;;;;FALSE;1;2023-03-01 12:07:29.400184;2023-03-01 12:07:29.400184;;;f;f;f;f;f;f
437;ZAP;229;28;10517;MAHABO;;;;;;;;;;FALSE;1;2023-03-01 12:07:29.400184;2023-03-01 12:07:29.400184;;;f;f;f;f;f;f
438;ZAP;230;28;10518;MAHEREZA;;;;;;;;;;FALSE;1;2023-03-01 12:07:29.400184;2023-03-01 12:07:29.400184;;;f;f;f;f;f;f
439;ZAP;231;28;10519;MAHITSY;;;;;;;;;;FALSE;1;2023-03-01 12:07:29.400184;2023-03-01 12:07:29.400184;;;f;f;f;f;f;f
440;ZAP;232;28;10520;MANANJARA;;;;;;;;;;FALSE;1;2023-03-01 12:07:29.400184;2023-03-01 12:07:29.400184;;;f;f;f;f;f;f
441;ZAP;233;28;10523;TALATAMATY;;;;;;;;;;FALSE;1;2023-03-01 12:07:29.400184;2023-03-01 12:07:29.400184;;;f;f;f;f;f;f
442;ZAP;234;28;10521;MANJAKAVARADRANO;;;;;;;;;;FALSE;1;2023-03-01 12:07:29.400184;2023-03-01 12:07:29.400184;;;f;f;f;f;f;f
443;ZAP;235;28;10521;MANJAKAVARADRANO;;;;;;;;;;FALSE;1;2023-03-01 12:07:29.400184;2023-03-01 12:07:29.400184;;;f;f;f;f;f;f
444;ZAP;236;29;10601;ALAROBIA VATOSOLA;;;;;;;;;;FALSE;1;2023-03-01 12:07:29.400184;2023-03-01 12:07:29.400184;;;f;f;f;f;f;f
445;ZAP;237;29;10602;ALATSINAINY BAKARO;;;;;;;;;;FALSE;1;2023-03-01 12:07:29.400184;2023-03-01 12:07:29.400184;;;f;f;f;f;f;f
446;ZAP;238;29;10605;ANJOMA FALIARIVO;;;;;;;;;;FALSE;1;2023-03-01 12:07:29.400184;2023-03-01 12:07:29.400184;;;f;f;f;f;f;f
447;ZAP;239;29;10603;AMBOHIMIADANA;;;;;;;;;;FALSE;1;2023-03-01 12:07:29.400184;2023-03-01 12:07:29.400184;;;f;f;f;f;f;f
448;ZAP;240;29;10610;SABOTSY AMBOHITROMBY;;;;;;;;;;FALSE;1;2023-03-01 12:07:29.400184;2023-03-01 12:07:29.400184;;;f;f;f;f;f;f
449;ZAP;241;29;10604;ANDRAMASINA;;;;;;;;;;FALSE;1;2023-03-01 12:07:29.400184;2023-03-01 12:07:29.400184;;;f;f;f;f;f;f
450;ZAP;242;29;10606;ANOSIBE TRIMOLOHARANO;;;;;;;;;;FALSE;1;2023-03-01 12:07:29.400184;2023-03-01 12:07:29.400184;;;f;f;f;f;f;f
451;ZAP;243;29;10608;FITSINJOVANA BAKARO;;;;;;;;;;FALSE;1;2023-03-01 12:07:29.400184;2023-03-01 12:07:29.400184;;;f;f;f;f;f;f
452;ZAP;244;29;10609;MANDROSOA;;;;;;;;;;FALSE;1;2023-03-01 12:07:29.400184;2023-03-01 12:07:29.400184;;;f;f;f;f;f;f
453;ZAP;245;29;10610;SABOTSY AMBOHITROMBY;;;;;;;;;;FALSE;1;2023-03-01 12:07:29.400184;2023-03-01 12:07:29.400184;;;f;f;f;f;f;f
454;ZAP;246;29;10612;TANKAFATRA;;;;;;;;;;FALSE;1;2023-03-01 12:07:29.400184;2023-03-01 12:07:29.400184;;;f;f;f;f;f;f
455;ZAP;247;29;10612;TANKAFATRA;;;;;;;;;;FALSE;1;2023-03-01 12:07:29.400184;2023-03-01 12:07:29.400184;;;f;f;f;f;f;f
456;ZAP;248;29;10607;ANTOTOHAZO;;;;;;;;;;FALSE;1;2023-03-01 12:07:29.400184;2023-03-01 12:07:29.400184;;;f;f;f;f;f;f
457;ZAP;249;29;10611;SABOTSY MANJAKAVAHOAKA;;;;;;;;;;FALSE;1;2023-03-01 12:07:29.400184;2023-03-01 12:07:29.400184;;;f;f;f;f;f;f
458;ZAP;250;30;10703;AMBOASARY NORD;;;;;;;;;;FALSE;1;2023-03-01 12:07:29.400184;2023-03-01 12:07:29.400184;;;f;f;f;f;f;f
459;ZAP;251;30;10713;ANJOZOROBE I;;;;;;;;;;FALSE;1;2023-03-01 12:07:29.400184;2023-03-01 12:07:29.400184;;;f;f;f;f;f;f
460;ZAP;251;30;10720;MAROTSIPOY;;;;;;;;;;FALSE;1;2023-03-01 12:07:29.400184;2023-03-01 12:07:29.400184;;;f;f;f;f;f;f
461;ZAP;251;30;10710;AMPARATANJONA;;;;;;;;;;FALSE;1;2023-03-01 12:07:29.400184;2023-03-01 12:07:29.400184;;;f;f;f;f;f;f
462;ZAP;252;30;10713;ANJOZOROBE I;;;;;;;;;;FALSE;1;2023-03-01 12:07:29.400184;2023-03-01 12:07:29.400184;;;f;f;f;f;f;f
463;ZAP;253;30;10720;MAROTSIPOY;;;;;;;;;;FALSE;1;2023-03-01 12:07:29.400184;2023-03-01 12:07:29.400184;;;f;f;f;f;f;f
464;ZAP;254;30;10711;ANALAROA;;;;;;;;;;FALSE;1;2023-03-01 12:07:29.400184;2023-03-01 12:07:29.400184;;;f;f;f;f;f;f
465;ZAP;255;30;10712;ANDROVAKELY;;;;;;;;;;FALSE;1;2023-03-01 12:07:29.400184;2023-03-01 12:07:29.400184;;;f;f;f;f;f;f
466;ZAP;256;30;10701;ALAKAMISY TSARASAOTRA;;;;;;;;;;FALSE;1;2023-03-01 12:07:29.400184;2023-03-01 12:07:29.400184;;;f;f;f;f;f;f
467;ZAP;257;30;10702;AMBATOMANOINA;;;;;;;;;;FALSE;1;2023-03-01 12:07:29.400184;2023-03-01 12:07:29.400184;;;f;f;f;f;f;f
468;ZAP;250;30;10720;MAROTSIPOY;;;;;;;;;;FALSE;1;2023-03-01 12:07:29.400184;2023-03-01 12:07:29.400184;;;f;f;f;f;f;f
469;ZAP;258;30;10705;AMBOHIBARY VOHILENA II;;;;;;;;;;FALSE;1;2023-03-01 12:07:29.400184;2023-03-01 12:07:29.400184;;;f;f;f;f;f;f
470;ZAP;258;30;10704;AMBOHIBARY VOHILENA I;;;;;;;;;;FALSE;1;2023-03-01 12:07:29.400184;2023-03-01 12:07:29.400184;;;f;f;f;f;f;f
471;ZAP;259;30;10708;AMBONGAMARINA I;;;;;;;;;;FALSE;1;2023-03-01 12:07:29.400184;2023-03-01 12:07:29.400184;;;f;f;f;f;f;f
472;ZAP;259;30;10709;AMBONGAMARINA II;;;;;;;;;;FALSE;1;2023-03-01 12:07:29.400184;2023-03-01 12:07:29.400184;;;f;f;f;f;f;f
473;ZAP;252;30;10714;ANJOZOROBE II;;;;;;;;;;FALSE;1;2023-03-01 12:07:29.400184;2023-03-01 12:07:29.400184;;;f;f;f;f;f;f
474;ZAP;260;30;10715;ANTANETIBE ANATIVOLO;;;;;;;;;;FALSE;1;2023-03-01 12:07:29.400184;2023-03-01 12:07:29.400184;;;f;f;f;f;f;f
475;ZAP;261;30;10716;BERONONO;;;;;;;;;;FALSE;1;2023-03-01 12:07:29.400184;2023-03-01 12:07:29.400184;;;f;f;f;f;f;f
476;ZAP;262;30;10717;BETATAO;;;;;;;;;;FALSE;1;2023-03-01 12:07:29.400184;2023-03-01 12:07:29.400184;;;f;f;f;f;f;f
477;ZAP;263;30;10719;MANGAMILA II;;;;;;;;;;FALSE;1;2023-03-01 12:07:29.400184;2023-03-01 12:07:29.400184;;;f;f;f;f;f;f
478;ZAP;263;30;10718;MANGAMILA I;;;;;;;;;;FALSE;1;2023-03-01 12:07:29.400184;2023-03-01 12:07:29.400184;;;f;f;f;f;f;f
479;ZAP;264;30;10710;AMPARATANJONA;;;;;;;;;;FALSE;1;2023-03-01 12:07:29.400184;2023-03-01 12:07:29.400184;;;f;f;f;f;f;f
480;ZAP;265;30;10706;AMBOHIMANARINA;;;;;;;;;;FALSE;1;2023-03-01 12:07:29.400184;2023-03-01 12:07:29.400184;;;f;f;f;f;f;f
481;ZAP;266;30;10715;ANTANETIBE ANATIVOLO;;;;;;;;;;FALSE;1;2023-03-01 12:07:29.400184;2023-03-01 12:07:29.400184;;;f;f;f;f;f;f
482;ZAP;267;30;10707;AMBOHIMIRARY;;;;;;;;;;FALSE;1;2023-03-01 12:07:29.400184;2023-03-01 12:07:29.400184;;;f;f;f;f;f;f
483;ZAP;268;30;10701;ALAKAMISY TSARASAOTRA;;;;;;;;;;FALSE;1;2023-03-01 12:07:29.400184;2023-03-01 12:07:29.400184;;;f;f;f;f;f;f
484;ZAP;269;39;11601;ALAROBIA;;;;;;;;;;FALSE;1;2023-03-01 12:07:29.400184;2023-03-01 12:07:29.400184;;;f;f;f;f;f;f
485;ZAP;270;39;11602;AMBANITSENA;;;;;;;;;;FALSE;1;2023-03-01 12:07:29.400184;2023-03-01 12:07:29.400184;;;f;f;f;f;f;f
486;ZAP;271;39;11603;AMBATOLAONA;;;;;;;;;;FALSE;1;2023-03-01 12:07:29.400184;2023-03-01 12:07:29.400184;;;f;f;f;f;f;f
487;ZAP;272;39;11604;AMBATOMANGA;;;;;;;;;;FALSE;1;2023-03-01 12:07:29.400184;2023-03-01 12:07:29.400184;;;f;f;f;f;f;f
488;ZAP;273;39;11605;AMBATOMENA;;;;;;;;;;FALSE;1;2023-03-01 12:07:29.400184;2023-03-01 12:07:29.400184;;;f;f;f;f;f;f
489;ZAP;274;39;11607;AMBOHIBARY;;;;;;;;;;FALSE;1;2023-03-01 12:07:29.400184;2023-03-01 12:07:29.400184;;;f;f;f;f;f;f
490;ZAP;275;39;11608;AMBOHITRANDRIAMANITRA;;;;;;;;;;FALSE;1;2023-03-01 12:07:29.400184;2023-03-01 12:07:29.400184;;;f;f;f;f;f;f
491;ZAP;276;39;11609;AMBOHITROLOMAHITSY;;;;;;;;;;FALSE;1;2023-03-01 12:07:29.400184;2023-03-01 12:07:29.400184;;;f;f;f;f;f;f
492;ZAP;277;39;11610;AMBOHITRONY;;;;;;;;;;FALSE;1;2023-03-01 12:07:29.400184;2023-03-01 12:07:29.400184;;;f;f;f;f;f;f
493;ZAP;278;39;11611;AMBOHITSEHENO;;;;;;;;;;FALSE;1;2023-03-01 12:07:29.400184;2023-03-01 12:07:29.400184;;;f;f;f;f;f;f
494;ZAP;279;39;11613;ANJEPY;;;;;;;;;;FALSE;1;2023-03-01 12:07:29.400184;2023-03-01 12:07:29.400184;;;f;f;f;f;f;f
495;ZAP;280;39;11614;ANJOMA BETOHO;;;;;;;;;;FALSE;1;2023-03-01 12:07:29.400184;2023-03-01 12:07:29.400184;;;f;f;f;f;f;f
496;ZAP;281;39;11617;MANJAKANDRIANA;;;;;;;;;;FALSE;1;2023-03-01 12:07:29.400184;2023-03-01 12:07:29.400184;;;f;f;f;f;f;f
497;ZAP;282;39;11618;MANTASOA;;;;;;;;;;FALSE;1;2023-03-01 12:07:29.400184;2023-03-01 12:07:29.400184;;;f;f;f;f;f;f
498;ZAP;283;39;11619;MERIKANJAKA;;;;;;;;;;FALSE;1;2023-03-01 12:07:29.400184;2023-03-01 12:07:29.400184;;;f;f;f;f;f;f
499;ZAP;284;39;11620;MIADANANDRIANA;;;;;;;;;;FALSE;1;2023-03-01 12:07:29.400184;2023-03-01 12:07:29.400184;;;f;f;f;f;f;f
500;ZAP;285;39;11621;NANDIHIZANA;;;;;;;;;;FALSE;1;2023-03-01 12:07:29.400184;2023-03-01 12:07:29.400184;;;f;f;f;f;f;f
501;ZAP;286;39;11622;RANOVAO;;;;;;;;;;FALSE;1;2023-03-01 12:07:29.400184;2023-03-01 12:07:29.400184;;;f;f;f;f;f;f
502;ZAP;287;39;11623;SADABE;;;;;;;;;;FALSE;1;2023-03-01 12:07:29.400184;2023-03-01 12:07:29.400184;;;f;f;f;f;f;f
503;ZAP;288;39;11624;SAMBAINA;;;;;;;;;;FALSE;1;2023-03-01 12:07:29.400184;2023-03-01 12:07:29.400184;;;f;f;f;f;f;f
504;ZAP;289;39;11625;SOAVINANDRIANA;;;;;;;;;;FALSE;1;2023-03-01 12:07:29.400184;2023-03-01 12:07:29.400184;;;f;f;f;f;f;f
505;ZAP;290;39;11612;AMPANEVA;;;;;;;;;;FALSE;1;2023-03-01 12:07:29.400184;2023-03-01 12:07:29.400184;;;f;f;f;f;f;f
506;ZAP;291;39;11606;AMBOHIBAO SUD;;;;;;;;;;FALSE;1;2023-03-01 12:07:29.400184;2023-03-01 12:07:29.400184;;;f;f;f;f;f;f
507;ZAP;292;39;11615;ANKAZONDANDY;;;;;;;;;;FALSE;1;2023-03-01 12:07:29.400184;2023-03-01 12:07:29.400184;;;f;f;f;f;f;f
508;ZAP;293;39;11616;ANTSAHALALINA;;;;;;;;;;FALSE;1;2023-03-01 12:07:29.400184;2023-03-01 12:07:29.400184;;;f;f;f;f;f;f
509;ZAP;294;107;50910;FENERIVE VILLE;;;;;;;;;;FALSE;1;2023-03-01 12:07:29.400184;2023-03-01 12:07:29.400184;;;f;f;f;f;f;f
510;ZAP;295;107;50903;AMBODIMANGA II NORD;;;;;;;;;;FALSE;1;2023-03-01 12:07:29.400184;2023-03-01 12:07:29.400184;;;f;f;f;f;f;f
511;ZAP;296;107;50905;AMPASIMBE MANANTSATRANA;;;;;;;;;;FALSE;1;2023-03-01 12:07:29.400184;2023-03-01 12:07:29.400184;;;f;f;f;f;f;f
512;ZAP;297;107;50906;AMPASINA MANINGORY NORD;;;;;;;;;;FALSE;1;2023-03-01 12:07:29.400184;2023-03-01 12:07:29.400184;;;f;f;f;f;f;f
513;ZAP;297;107;50907;AMPASINA MANINGORY SUD;;;;;;;;;;FALSE;1;2023-03-01 12:07:29.400184;2023-03-01 12:07:29.400184;;;f;f;f;f;f;f
514;ZAP;298;107;50908;ANTSIATSIAKA I;;;;;;;;;;FALSE;1;2023-03-01 12:07:29.400184;2023-03-01 12:07:29.400184;;;f;f;f;f;f;f
515;ZAP;298;107;50909;ANTSIATSIAKA II;;;;;;;;;;FALSE;1;2023-03-01 12:07:29.400184;2023-03-01 12:07:29.400184;;;f;f;f;f;f;f
516;ZAP;299;107;50912;MAHAMBO SUD;;;;;;;;;;FALSE;1;2023-03-01 12:07:29.400184;2023-03-01 12:07:29.400184;;;f;f;f;f;f;f
517;ZAP;299;107;50911;MAHAMBO NORD;;;;;;;;;;FALSE;1;2023-03-01 12:07:29.400184;2023-03-01 12:07:29.400184;;;f;f;f;f;f;f
518;ZAP;300;107;50915;SARANAMBANA EST;;;;;;;;;;FALSE;1;2023-03-01 12:07:29.400184;2023-03-01 12:07:29.400184;;;f;f;f;f;f;f
519;ZAP;300;107;50916;SARANAMBANA OUEST;;;;;;;;;;FALSE;1;2023-03-01 12:07:29.400184;2023-03-01 12:07:29.400184;;;f;f;f;f;f;f
520;ZAP;301;107;50917;VOHILENGO NORD;;;;;;;;;;FALSE;1;2023-03-01 12:07:29.400184;2023-03-01 12:07:29.400184;;;f;f;f;f;f;f
521;ZAP;302;107;50919;VOHIPENO EST;;;;;;;;;;FALSE;1;2023-03-01 12:07:29.400184;2023-03-01 12:07:29.400184;;;f;f;f;f;f;f
522;ZAP;302;107;50920;VOHIPENO OUEST;;;;;;;;;;FALSE;1;2023-03-01 12:07:29.400184;2023-03-01 12:07:29.400184;;;f;f;f;f;f;f
523;ZAP;303;107;50902;AMBATOHARANANA;;;;;;;;;;FALSE;1;2023-03-01 12:07:29.400184;2023-03-01 12:07:29.400184;;;f;f;f;f;f;f
524;ZAP;304;107;50904;AMBODIMANGA II SUD;;;;;;;;;;FALSE;1;2023-03-01 12:07:29.400184;2023-03-01 12:07:29.400184;;;f;f;f;f;f;f
525;ZAP;295;107;50904;AMBODIMANGA II SUD;;;;;;;;;;FALSE;1;2023-03-01 12:07:29.400184;2023-03-01 12:07:29.400184;;;f;f;f;f;f;f
526;ZAP;305;107;50901;AMBANJAN'I SAHALAVA;;;;;;;;;;FALSE;1;2023-03-01 12:07:29.400184;2023-03-01 12:07:29.400184;;;f;f;f;f;f;f
527;ZAP;306;107;50914;MIORIMIVALANA;;;;;;;;;;FALSE;1;2023-03-01 12:07:29.400184;2023-03-01 12:07:29.400184;;;f;f;f;f;f;f
528;ZAP;306;107;50916;SARANAMBANA OUEST;;;;;;;;;;FALSE;1;2023-03-01 12:07:29.400184;2023-03-01 12:07:29.400184;;;f;f;f;f;f;f
529;ZAP;301;107;50918;VOHILENGO SUD;;;;;;;;;;FALSE;1;2023-03-01 12:07:29.400184;2023-03-01 12:07:29.400184;;;f;f;f;f;f;f
530;ZAP;307;107;50913;MAHANORO;;;;;;;;;;FALSE;1;2023-03-01 12:07:29.400184;2023-03-01 12:07:29.400184;;;f;f;f;f;f;f
531;ZAP;308;109;51101;AMBATOHARANANA;;;;;;;;;;FALSE;1;2023-03-01 12:07:29.400184;2023-03-01 12:07:29.400184;;;f;f;f;f;f;f
532;ZAP;309;109;51102;AMBODIAMPANA;;;;;;;;;;FALSE;1;2023-03-01 12:07:29.400184;2023-03-01 12:07:29.400184;;;f;f;f;f;f;f
533;ZAP;310;109;51103;AMBODIVOANIO;;;;;;;;;;FALSE;1;2023-03-01 12:07:29.400184;2023-03-01 12:07:29.400184;;;f;f;f;f;f;f
534;ZAP;311;109;51106;ANTANAMBAOBE;;;;;;;;;;FALSE;1;2023-03-01 12:07:29.400184;2023-03-01 12:07:29.400184;;;f;f;f;f;f;f
535;ZAP;312;109;51107;ANTANAMBE I;;;;;;;;;;FALSE;1;2023-03-01 12:07:29.400184;2023-03-01 12:07:29.400184;;;f;f;f;f;f;f
536;ZAP;313;109;51105;ANDASIBE;;;;;;;;;;FALSE;1;2023-03-01 12:07:29.400184;2023-03-01 12:07:29.400184;;;f;f;f;f;f;f
537;ZAP;314;109;51113;MANANARA I;;;;;;;;;;FALSE;1;2023-03-01 12:07:29.400184;2023-03-01 12:07:29.400184;;;f;f;f;f;f;f
538;ZAP;315;109;51104;ANALANAMPOTSY;;;;;;;;;;FALSE;1;2023-03-01 12:07:29.400184;2023-03-01 12:07:29.400184;;;f;f;f;f;f;f
539;ZAP;316;109;51109;ANTANANANIVO;;;;;;;;;;FALSE;1;2023-03-01 12:07:29.400184;2023-03-01 12:07:29.400184;;;f;f;f;f;f;f
540;ZAP;317;109;51110;IMORONA;;;;;;;;;;FALSE;1;2023-03-01 12:07:29.400184;2023-03-01 12:07:29.400184;;;f;f;f;f;f;f
541;ZAP;318;109;51112;MANAMBOLOSY;;;;;;;;;;FALSE;1;2023-03-01 12:07:29.400184;2023-03-01 12:07:29.400184;;;f;f;f;f;f;f
542;ZAP;319;109;51114;SANDRAKATSY;;;;;;;;;;FALSE;1;2023-03-01 12:07:29.400184;2023-03-01 12:07:29.400184;;;f;f;f;f;f;f
543;ZAP;312;109;51108;ANTANAMBE II;;;;;;;;;;FALSE;1;2023-03-01 12:07:29.400184;2023-03-01 12:07:29.400184;;;f;f;f;f;f;f
544;ZAP;320;109;51111;MAHANORO;;;;;;;;;;FALSE;1;2023-03-01 12:07:29.400184;2023-03-01 12:07:29.400184;;;f;f;f;f;f;f
545;ZAP;321;109;51117;VANONO;;;;;;;;;;FALSE;1;2023-03-01 12:07:29.400184;2023-03-01 12:07:29.400184;;;f;f;f;f;f;f
546;ZAP;320;109;51117;VANONO;;;;;;;;;;FALSE;1;2023-03-01 12:07:29.400184;2023-03-01 12:07:29.400184;;;f;f;f;f;f;f
547;ZAP;322;109;51116;TANIBE;;;;;;;;;;FALSE;1;2023-03-01 12:07:29.400184;2023-03-01 12:07:29.400184;;;f;f;f;f;f;f
548;ZAP;323;109;51115;SAROMAONA;;;;;;;;;;FALSE;1;2023-03-01 12:07:29.400184;2023-03-01 12:07:29.400184;;;f;f;f;f;f;f
549;ZAP;324;113;51502;LOUKINTSY;;;;;;;;;;FALSE;1;2023-03-01 12:07:29.400184;2023-03-01 12:07:29.400184;;;f;f;f;f;f;f
550;ZAP;324;113;51501;AMBODIFOTATRA;;;;;;;;;;FALSE;1;2023-03-01 12:07:29.400184;2023-03-01 12:07:29.400184;;;f;f;f;f;f;f
551;ZAP;325;114;51602;AMBAHOABE SUD;;;;;;;;;;FALSE;1;2023-03-01 12:07:29.400184;2023-03-01 12:07:29.400184;;;f;f;f;f;f;f
552;ZAP;326;114;51604;AMBODIAMPANA;;;;;;;;;;FALSE;1;2023-03-01 12:07:29.400184;2023-03-01 12:07:29.400184;;;f;f;f;f;f;f
553;ZAP;327;114;51605;ANDAPAFITO NORD;;;;;;;;;;FALSE;1;2023-03-01 12:07:29.400184;2023-03-01 12:07:29.400184;;;f;f;f;f;f;f
554;ZAP;327;114;51606;ANDAPAFITO SUD;;;;;;;;;;FALSE;1;2023-03-01 12:07:29.400184;2023-03-01 12:07:29.400184;;;f;f;f;f;f;f
555;ZAP;328;114;51607;ANTANIFOTSY;;;;;;;;;;FALSE;1;2023-03-01 12:07:29.400184;2023-03-01 12:07:29.400184;;;f;f;f;f;f;f
556;ZAP;329;114;51610;FOTSIALANANA;;;;;;;;;;FALSE;1;2023-03-01 12:07:29.400184;2023-03-01 12:07:29.400184;;;f;f;f;f;f;f
557;ZAP;330;114;51611;MANOMPANA;;;;;;;;;;FALSE;1;2023-03-01 12:07:29.400184;2023-03-01 12:07:29.400184;;;f;f;f;f;f;f
558;ZAP;331;114;51612;SOANIERANA IVONGO I;;;;;;;;;;FALSE;1;2023-03-01 12:07:29.400184;2023-03-01 12:07:29.400184;;;f;f;f;f;f;f
559;ZAP;325;114;51601;AMBAHOABE NORD;;;;;;;;;;FALSE;1;2023-03-01 12:07:29.400184;2023-03-01 12:07:29.400184;;;f;f;f;f;f;f
560;ZAP;332;114;51608;ANTENINA I;;;;;;;;;;FALSE;1;2023-03-01 12:07:29.400184;2023-03-01 12:07:29.400184;;;f;f;f;f;f;f
561;ZAP;332;114;51609;ANTENINA II;;;;;;;;;;FALSE;1;2023-03-01 12:07:29.400184;2023-03-01 12:07:29.400184;;;f;f;f;f;f;f
562;ZAP;333;114;51603;AMBINANISAKANA;;;;;;;;;;FALSE;1;2023-03-01 12:07:29.400184;2023-03-01 12:07:29.400184;;;f;f;f;f;f;f
563;ZAP;331;114;51613;SOANIERANA IVONGO II;;;;;;;;;;FALSE;1;2023-03-01 12:07:29.400184;2023-03-01 12:07:29.400184;;;f;f;f;f;f;f
564;ZAP;334;116;51801;AMBATOHARANANA I;;;;;;;;;;FALSE;1;2023-03-01 12:07:29.400184;2023-03-01 12:07:29.400184;;;f;f;f;f;f;f
565;ZAP;335;116;51802;AMBODIMANGAVALO EST;;;;;;;;;;FALSE;1;2023-03-01 12:07:29.400184;2023-03-01 12:07:29.400184;;;f;f;f;f;f;f
566;ZAP;336;116;51804;AMBOHIBE NORD;;;;;;;;;;FALSE;1;2023-03-01 12:07:29.400184;2023-03-01 12:07:29.400184;;;f;f;f;f;f;f
567;ZAP;337;116;51806;AMPASIMAZAVA;;;;;;;;;;FALSE;1;2023-03-01 12:07:29.400184;2023-03-01 12:07:29.400184;;;f;f;f;f;f;f
568;ZAP;338;116;51807;ANDASIBE NORD;;;;;;;;;;FALSE;1;2023-03-01 12:07:29.400184;2023-03-01 12:07:29.400184;;;f;f;f;f;f;f
569;ZAP;338;116;51808;ANDASIBE SUD;;;;;;;;;;FALSE;1;2023-03-01 12:07:29.400184;2023-03-01 12:07:29.400184;;;f;f;f;f;f;f
570;ZAP;339;116;51809;ANJAHAMBE;;;;;;;;;;FALSE;1;2023-03-01 12:07:29.400184;2023-03-01 12:07:29.400184;;;f;f;f;f;f;f
571;ZAP;340;116;51810;MAROMITETY;;;;;;;;;;FALSE;1;2023-03-01 12:07:29.400184;2023-03-01 12:07:29.400184;;;f;f;f;f;f;f
572;ZAP;341;116;51811;MIARINARIVO NORD;;;;;;;;;;FALSE;1;2023-03-01 12:07:29.400184;2023-03-01 12:07:29.400184;;;f;f;f;f;f;f
573;ZAP;342;116;51815;VAVATENINA NORD;;;;;;;;;;FALSE;1;2023-03-01 12:07:29.400184;2023-03-01 12:07:29.400184;;;f;f;f;f;f;f
574;ZAP;335;116;51803;AMBODIMANGAVALO OUEST;;;;;;;;;;FALSE;1;2023-03-01 12:07:29.400184;2023-03-01 12:07:29.400184;;;f;f;f;f;f;f
575;ZAP;336;116;51805;AMBOHIBE SUD;;;;;;;;;;FALSE;1;2023-03-01 12:07:29.400184;2023-03-01 12:07:29.400184;;;f;f;f;f;f;f
576;ZAP;341;116;51812;MIARINARIVO SUD;;;;;;;;;;FALSE;1;2023-03-01 12:07:29.400184;2023-03-01 12:07:29.400184;;;f;f;f;f;f;f
577;ZAP;343;116;51814;TANAMARINA;;;;;;;;;;FALSE;1;2023-03-01 12:07:29.400184;2023-03-01 12:07:29.400184;;;f;f;f;f;f;f
578;ZAP;344;116;51813;SAHATAVY;;;;;;;;;;FALSE;1;2023-03-01 12:07:29.400184;2023-03-01 12:07:29.400184;;;f;f;f;f;f;f
579;ZAP;342;116;51816;VAVATENINA SUD;;;;;;;;;;FALSE;1;2023-03-01 12:07:29.400184;2023-03-01 12:07:29.400184;;;f;f;f;f;f;f
580;ZAP;345;110;51209;ANJAHANA;;;;;;;;;;FALSE;1;2023-03-01 12:07:29.400184;2023-03-01 12:07:29.400184;;;f;f;f;f;f;f
581;ZAP;346;110;51217;MAROANTSETRA II;;;;;;;;;;FALSE;1;2023-03-01 12:07:29.400184;2023-03-01 12:07:29.400184;;;f;f;f;f;f;f
582;ZAP;346;110;51216;MAROANTSETRA I;;;;;;;;;;FALSE;1;2023-03-01 12:07:29.400184;2023-03-01 12:07:29.400184;;;f;f;f;f;f;f
583;ZAP;347;110;51219;RANTABE;;;;;;;;;;FALSE;1;2023-03-01 12:07:29.400184;2023-03-01 12:07:29.400184;;;f;f;f;f;f;f
584;ZAP;348;110;51220;VOLOINA;;;;;;;;;;FALSE;1;2023-03-01 12:07:29.400184;2023-03-01 12:07:29.400184;;;f;f;f;f;f;f
585;ZAP;349;110;51214;MAHALEVONA;;;;;;;;;;FALSE;1;2023-03-01 12:07:29.400184;2023-03-01 12:07:29.400184;;;f;f;f;f;f;f
586;ZAP;350;110;51202;AMBINANITELO I;;;;;;;;;;FALSE;1;2023-03-01 12:07:29.400184;2023-03-01 12:07:29.400184;;;f;f;f;f;f;f
587;ZAP;350;110;51203;AMBINANITELO II;;;;;;;;;;FALSE;1;2023-03-01 12:07:29.400184;2023-03-01 12:07:29.400184;;;f;f;f;f;f;f
588;ZAP;351;110;51202;AMBINANITELO I;;;;;;;;;;FALSE;1;2023-03-01 12:07:29.400184;2023-03-01 12:07:29.400184;;;f;f;f;f;f;f
589;ZAP;352;110;51206;ANDRANOFOTSY;;;;;;;;;;FALSE;1;2023-03-01 12:07:29.400184;2023-03-01 12:07:29.400184;;;f;f;f;f;f;f
590;ZAP;353;110;51210;ANJANAZANA;;;;;;;;;;FALSE;1;2023-03-01 12:07:29.400184;2023-03-01 12:07:29.400184;;;f;f;f;f;f;f
591;ZAP;354;110;51210;ANJANAZANA;;;;;;;;;;FALSE;1;2023-03-01 12:07:29.400184;2023-03-01 12:07:29.400184;;;f;f;f;f;f;f
592;ZAP;353;110;51206;ANDRANOFOTSY;;;;;;;;;;FALSE;1;2023-03-01 12:07:29.400184;2023-03-01 12:07:29.400184;;;f;f;f;f;f;f
593;ZAP;355;110;51201;AMBANIZANA;;;;;;;;;;FALSE;1;2023-03-01 12:07:29.400184;2023-03-01 12:07:29.400184;;;f;f;f;f;f;f
594;ZAP;356;110;51213;ANTSIRABE SAHATANY;;;;;;;;;;FALSE;1;2023-03-01 12:07:29.400184;2023-03-01 12:07:29.400184;;;f;f;f;f;f;f
595;ZAP;357;110;51212;ANTAKOTAKO;;;;;;;;;;FALSE;1;2023-03-01 12:07:29.400184;2023-03-01 12:07:29.400184;;;f;f;f;f;f;f
596;ZAP;358;110;51215;MANAMBOLO;;;;;;;;;;FALSE;1;2023-03-01 12:07:29.400184;2023-03-01 12:07:29.400184;;;f;f;f;f;f;f
597;ZAP;359;110;51208;ANDRONDRONO SUD;;;;;;;;;;FALSE;1;2023-03-01 12:07:29.400184;2023-03-01 12:07:29.400184;;;f;f;f;f;f;f
598;ZAP;359;110;51207;ANDRONDRONO NORD;;;;;;;;;;FALSE;1;2023-03-01 12:07:29.400184;2023-03-01 12:07:29.400184;;;f;f;f;f;f;f
599;ZAP;360;110;51204;AMBODIMANGA;;;;;;;;;;FALSE;1;2023-03-01 12:07:29.400184;2023-03-01 12:07:29.400184;;;f;f;f;f;f;f
600;ZAP;361;110;51218;MORAFENO;;;;;;;;;;FALSE;1;2023-03-01 12:07:29.400184;2023-03-01 12:07:29.400184;;;f;f;f;f;f;f
601;ZAP;362;110;51205;ANANDRIVOLA;;;;;;;;;;FALSE;1;2023-03-01 12:07:29.400184;2023-03-01 12:07:29.400184;;;f;f;f;f;f;f
602;ZAP;363;110;51213;ANTSIRABE SAHATANY;;;;;;;;;;FALSE;1;2023-03-01 12:07:29.400184;2023-03-01 12:07:29.400184;;;f;f;f;f;f;f
603;ZAP;364;110;51211;ANKOFA;;;;;;;;;;FALSE;1;2023-03-01 12:07:29.400184;2023-03-01 12:07:29.400184;;;f;f;f;f;f;f
604;ZAP;365;123;60710;BERAKETA;;;;;;;;;;FALSE;1;2023-03-01 12:07:29.400184;2023-03-01 12:07:29.400184;;;f;f;f;f;f;f
605;ZAP;366;123;60706;ANTSAKOAMARO;;;;;;;;;;FALSE;1;2023-03-01 12:07:29.400184;2023-03-01 12:07:29.400184;;;f;f;f;f;f;f
606;ZAP;367;123;60708;BEKITRO;;;;;;;;;;FALSE;1;2023-03-01 12:07:29.400184;2023-03-01 12:07:29.400184;;;f;f;f;f;f;f
607;ZAP;368;123;60712;BETEZA;;;;;;;;;;FALSE;1;2023-03-01 12:07:29.400184;2023-03-01 12:07:29.400184;;;f;f;f;f;f;f
608;ZAP;369;123;60707;BEKILY CENTRALE;;;;;;;;;;FALSE;1;2023-03-01 12:07:29.400184;2023-03-01 12:07:29.400184;;;f;f;f;f;f;f
609;ZAP;370;123;60710;BERAKETA;;;;;;;;;;FALSE;1;2023-03-01 12:07:29.400184;2023-03-01 12:07:29.400184;;;f;f;f;f;f;f
610;ZAP;371;123;60719;TSIKOLAKY;;;;;;;;;;FALSE;1;2023-03-01 12:07:29.400184;2023-03-01 12:07:29.400184;;;f;f;f;f;f;f
611;ZAP;372;123;60701;AMBAHITA;;;;;;;;;;FALSE;1;2023-03-01 12:07:29.400184;2023-03-01 12:07:29.400184;;;f;f;f;f;f;f
612;ZAP;372;123;60715;MAROVIRO;;;;;;;;;;FALSE;1;2023-03-01 12:07:29.400184;2023-03-01 12:07:29.400184;;;f;f;f;f;f;f
613;ZAP;372;123;60702;AMBATOSOLA;;;;;;;;;;FALSE;1;2023-03-01 12:07:29.400184;2023-03-01 12:07:29.400184;;;f;f;f;f;f;f
614;ZAP;372;123;60716;MIKAIKARIVO AMBATOMAINTY;;;;;;;;;;FALSE;1;2023-03-01 12:07:29.400184;2023-03-01 12:07:29.400184;;;f;f;f;f;f;f
615;ZAP;372;123;60711;BESAKOA;;;;;;;;;;FALSE;1;2023-03-01 12:07:29.400184;2023-03-01 12:07:29.400184;;;f;f;f;f;f;f
616;ZAP;373;123;60716;MIKAIKARIVO AMBATOMAINTY;;;;;;;;;;FALSE;1;2023-03-01 12:07:29.400184;2023-03-01 12:07:29.400184;;;f;f;f;f;f;f
617;ZAP;374;123;60702;AMBATOSOLA;;;;;;;;;;FALSE;1;2023-03-01 12:07:29.400184;2023-03-01 12:07:29.400184;;;f;f;f;f;f;f
618;ZAP;374;123;60717;TANAMBAO TSIRANDRANY;;;;;;;;;;FALSE;1;2023-03-01 12:07:29.400184;2023-03-01 12:07:29.400184;;;f;f;f;f;f;f
619;ZAP;375;123;60703;ANIVORANO MITSINJO;;;;;;;;;;FALSE;1;2023-03-01 12:07:29.400184;2023-03-01 12:07:29.400184;;;f;f;f;f;f;f
620;ZAP;370;123;60703;ANIVORANO MITSINJO;;;;;;;;;;FALSE;1;2023-03-01 12:07:29.400184;2023-03-01 12:07:29.400184;;;f;f;f;f;f;f
621;ZAP;376;123;60704;ANJA NORD;;;;;;;;;;FALSE;1;2023-03-01 12:07:29.400184;2023-03-01 12:07:29.400184;;;f;f;f;f;f;f
622;ZAP;377;123;60705;ANKARANABO NORD;;;;;;;;;;FALSE;1;2023-03-01 12:07:29.400184;2023-03-01 12:07:29.400184;;;f;f;f;f;f;f
623;ZAP;373;123;60705;ANKARANABO NORD;;;;;;;;;;FALSE;1;2023-03-01 12:07:29.400184;2023-03-01 12:07:29.400184;;;f;f;f;f;f;f
624;ZAP;366;123;60705;ANKARANABO NORD;;;;;;;;;;FALSE;1;2023-03-01 12:07:29.400184;2023-03-01 12:07:29.400184;;;f;f;f;f;f;f
625;ZAP;367;123;60713;BEVITIKY;;;;;;;;;;FALSE;1;2023-03-01 12:07:29.400184;2023-03-01 12:07:29.400184;;;f;f;f;f;f;f
626;ZAP;378;123;60709;BELINDO MAHASOA;;;;;;;;;;FALSE;1;2023-03-01 12:07:29.400184;2023-03-01 12:07:29.400184;;;f;f;f;f;f;f
627;ZAP;365;123;60703;ANIVORANO MITSINJO;;;;;;;;;;FALSE;1;2023-03-01 12:07:29.400184;2023-03-01 12:07:29.400184;;;f;f;f;f;f;f
628;ZAP;365;123;60720;VOHIMANGA;;;;;;;;;;FALSE;1;2023-03-01 12:07:29.400184;2023-03-01 12:07:29.400184;;;f;f;f;f;f;f
629;ZAP;368;123;60719;TSIKOLAKY;;;;;;;;;;FALSE;1;2023-03-01 12:07:29.400184;2023-03-01 12:07:29.400184;;;f;f;f;f;f;f
630;ZAP;379;123;60713;BEVITIKY;;;;;;;;;;FALSE;1;2023-03-01 12:07:29.400184;2023-03-01 12:07:29.400184;;;f;f;f;f;f;f
631;ZAP;380;123;60714;MANAKOMPY;;;;;;;;;;FALSE;1;2023-03-01 12:07:29.400184;2023-03-01 12:07:29.400184;;;f;f;f;f;f;f
632;ZAP;381;123;60715;MAROVIRO;;;;;;;;;;FALSE;1;2023-03-01 12:07:29.400184;2023-03-01 12:07:29.400184;;;f;f;f;f;f;f
633;ZAP;369;123;60704;ANJA NORD;;;;;;;;;;FALSE;1;2023-03-01 12:07:29.400184;2023-03-01 12:07:29.400184;;;f;f;f;f;f;f
634;ZAP;370;123;60714;MANAKOMPY;;;;;;;;;;FALSE;1;2023-03-01 12:07:29.400184;2023-03-01 12:07:29.400184;;;f;f;f;f;f;f
635;ZAP;370;123;60718;TANANDAVA;;;;;;;;;;FALSE;1;2023-03-01 12:07:29.400184;2023-03-01 12:07:29.400184;;;f;f;f;f;f;f
636;ZAP;382;123;60717;TANAMBAO TSIRANDRANY;;;;;;;;;;FALSE;1;2023-03-01 12:07:29.400184;2023-03-01 12:07:29.400184;;;f;f;f;f;f;f
637;ZAP;383;123;60720;VOHIMANGA;;;;;;;;;;FALSE;1;2023-03-01 12:07:29.400184;2023-03-01 12:07:29.400184;;;f;f;f;f;f;f
638;ZAP;384;123;60716;MIKAIKARIVO AMBATOMAINTY;;;;;;;;;;FALSE;1;2023-03-01 12:07:29.400184;2023-03-01 12:07:29.400184;;;f;f;f;f;f;f
639;ZAP;384;123;60711;BESAKOA;;;;;;;;;;FALSE;1;2023-03-01 12:07:29.400184;2023-03-01 12:07:29.400184;;;f;f;f;f;f;f
640;ZAP;384;123;60717;TANAMBAO TSIRANDRANY;;;;;;;;;;FALSE;1;2023-03-01 12:07:29.400184;2023-03-01 12:07:29.400184;;;f;f;f;f;f;f
641;ZAP;385;125;60904;KOPOKY;;;;;;;;;;FALSE;1;2023-03-01 12:07:29.400184;2023-03-01 12:07:29.400184;;;f;f;f;f;f;f
642;ZAP;386;125;60908;TRANOVAHO;;;;;;;;;;FALSE;1;2023-03-01 12:07:29.400184;2023-03-01 12:07:29.400184;;;f;f;f;f;f;f
643;ZAP;387;125;60906;MAROLINTA;;;;;;;;;;FALSE;1;2023-03-01 12:07:29.400184;2023-03-01 12:07:29.400184;;;f;f;f;f;f;f
644;ZAP;388;125;60903;BELOHA;;;;;;;;;;FALSE;1;2023-03-01 12:07:29.400184;2023-03-01 12:07:29.400184;;;f;f;f;f;f;f
645;ZAP;389;125;60907;TRANOROA;;;;;;;;;;FALSE;1;2023-03-01 12:07:29.400184;2023-03-01 12:07:29.400184;;;f;f;f;f;f;f
646;ZAP;390;125;60905;MAHENY;;;;;;;;;;FALSE;1;2023-03-01 12:07:29.400184;2023-03-01 12:07:29.400184;;;f;f;f;f;f;f
647;ZAP;391;125;60901;AMBATOTSIVALA;;;;;;;;;;FALSE;1;2023-03-01 12:07:29.400184;2023-03-01 12:07:29.400184;;;f;f;f;f;f;f
648;ZAP;392;125;60902;BEHABOBO;;;;;;;;;;FALSE;1;2023-03-01 12:07:29.400184;2023-03-01 12:07:29.400184;;;f;f;f;f;f;f
649;ZAP;393;120;60416;ERADA;;;;;;;;;;FALSE;1;2023-03-01 12:07:29.400184;2023-03-01 12:07:29.400184;;;f;f;f;f;f;f
650;ZAP;394;120;60402;AMBAZOA;;;;;;;;;;FALSE;1;2023-03-01 12:07:29.400184;2023-03-01 12:07:29.400184;;;f;f;f;f;f;f
651;ZAP;395;120;60405;AMBONDRO;;;;;;;;;;FALSE;1;2023-03-01 12:07:29.400184;2023-03-01 12:07:29.400184;;;f;f;f;f;f;f
652;ZAP;396;120;60407;AMBOVOMBE II;;;;;;;;;;FALSE;1;2023-03-01 12:07:29.400184;2023-03-01 12:07:29.400184;;;f;f;f;f;f;f
653;ZAP;396;120;60406;AMBOVOMBE I;;;;;;;;;;FALSE;1;2023-03-01 12:07:29.400184;2023-03-01 12:07:29.400184;;;f;f;f;f;f;f
654;ZAP;397;120;60408;AMPAMATA;;;;;;;;;;FALSE;1;2023-03-01 12:07:29.400184;2023-03-01 12:07:29.400184;;;f;f;f;f;f;f
655;ZAP;398;120;60410;ANDALATANOSY;;;;;;;;;;FALSE;1;2023-03-01 12:07:29.400184;2023-03-01 12:07:29.400184;;;f;f;f;f;f;f
656;ZAP;399;120;60415;BEANANTARA;;;;;;;;;;FALSE;1;2023-03-01 12:07:29.400184;2023-03-01 12:07:29.400184;;;f;f;f;f;f;f
657;ZAP;400;120;60413;ANTANIMORA OUEST;;;;;;;;;;FALSE;1;2023-03-01 12:07:29.400184;2023-03-01 12:07:29.400184;;;f;f;f;f;f;f
658;ZAP;401;120;60418;JAFARO;;;;;;;;;;FALSE;1;2023-03-01 12:07:29.400184;2023-03-01 12:07:29.400184;;;f;f;f;f;f;f
659;ZAP;402;120;60420;MAROALOPOTY;;;;;;;;;;FALSE;1;2023-03-01 12:07:29.400184;2023-03-01 12:07:29.400184;;;f;f;f;f;f;f
660;ZAP;403;120;60401;AMBANISARIKA;;;;;;;;;;FALSE;1;2023-03-01 12:07:29.400184;2023-03-01 12:07:29.400184;;;f;f;f;f;f;f
661;ZAP;404;120;60403;AMBOHIMALAZA;;;;;;;;;;FALSE;1;2023-03-01 12:07:29.400184;2023-03-01 12:07:29.400184;;;f;f;f;f;f;f
662;ZAP;405;120;60409;ANALAMARY;;;;;;;;;;FALSE;1;2023-03-01 12:07:29.400184;2023-03-01 12:07:29.400184;;;f;f;f;f;f;f
663;ZAP;406;120;60404;AMBONAIVO;;;;;;;;;;FALSE;1;2023-03-01 12:07:29.400184;2023-03-01 12:07:29.400184;;;f;f;f;f;f;f
664;ZAP;398;120;60408;AMPAMATA;;;;;;;;;;FALSE;1;2023-03-01 12:07:29.400184;2023-03-01 12:07:29.400184;;;f;f;f;f;f;f
665;ZAP;407;120;60411;ANDOHARANO;;;;;;;;;;FALSE;1;2023-03-01 12:07:29.400184;2023-03-01 12:07:29.400184;;;f;f;f;f;f;f
666;ZAP;400;120;60414;ANTANIMORA EST;;;;;;;;;;FALSE;1;2023-03-01 12:07:29.400184;2023-03-01 12:07:29.400184;;;f;f;f;f;f;f
667;ZAP;400;120;60411;ANDOHARANO;;;;;;;;;;FALSE;1;2023-03-01 12:07:29.400184;2023-03-01 12:07:29.400184;;;f;f;f;f;f;f
668;ZAP;408;120;60422;SIHANAMARO;;;;;;;;;;FALSE;1;2023-03-01 12:07:29.400184;2023-03-01 12:07:29.400184;;;f;f;f;f;f;f
669;ZAP;409;120;60417;IMANOMBO;;;;;;;;;;FALSE;1;2023-03-01 12:07:29.400184;2023-03-01 12:07:29.400184;;;f;f;f;f;f;f
670;ZAP;410;120;60412;ANDRAGNANIVO;;;;;;;;;;FALSE;1;2023-03-01 12:07:29.400184;2023-03-01 12:07:29.400184;;;f;f;f;f;f;f
671;ZAP;401;120;60412;ANDRAGNANIVO;;;;;;;;;;FALSE;1;2023-03-01 12:07:29.400184;2023-03-01 12:07:29.400184;;;f;f;f;f;f;f
672;ZAP;411;120;60419;MAROALOMAINTY;;;;;;;;;;FALSE;1;2023-03-01 12:07:29.400184;2023-03-01 12:07:29.400184;;;f;f;f;f;f;f
673;ZAP;412;120;60421;MAROVATO BEFENO;;;;;;;;;;FALSE;1;2023-03-01 12:07:29.400184;2023-03-01 12:07:29.400184;;;f;f;f;f;f;f
674;ZAP;413;120;60423;TSIMANANADA;;;;;;;;;;FALSE;1;2023-03-01 12:07:29.400184;2023-03-01 12:07:29.400184;;;f;f;f;f;f;f
675;ZAP;396;120;60423;TSIMANANADA;;;;;;;;;;FALSE;1;2023-03-01 12:07:29.400184;2023-03-01 12:07:29.400184;;;f;f;f;f;f;f
676;ZAP;394;120;60405;AMBONDRO;;;;;;;;;;FALSE;1;2023-03-01 12:07:29.400184;2023-03-01 12:07:29.400184;;;f;f;f;f;f;f
677;ZAP;414;130;61401;AMBATOABO;;;;;;;;;;FALSE;1;2023-03-01 12:07:29.400184;2023-03-01 12:07:29.400184;;;f;f;f;f;f;f
678;ZAP;415;130;61402;AMPASIMENA;;;;;;;;;;FALSE;1;2023-03-01 12:07:29.400184;2023-03-01 12:07:29.400184;;;f;f;f;f;f;f
679;ZAP;416;130;61428;TANANDAVA MADRERE;;;;;;;;;;FALSE;1;2023-03-01 12:07:29.400184;2023-03-01 12:07:29.400184;;;f;f;f;f;f;f
680;ZAP;417;130;61403;AMPASY NAHAMPOANA;;;;;;;;;;FALSE;1;2023-03-01 12:07:29.400184;2023-03-01 12:07:29.400184;;;f;f;f;f;f;f
681;ZAP;418;130;61404;ANALAMARY;;;;;;;;;;FALSE;1;2023-03-01 12:07:29.400184;2023-03-01 12:07:29.400184;;;f;f;f;f;f;f
682;ZAP;419;130;61427;SOAVARY;;;;;;;;;;FALSE;1;2023-03-01 12:07:29.400184;2023-03-01 12:07:29.400184;;;f;f;f;f;f;f
683;ZAP;420;130;61405;ANALAPATSY;;;;;;;;;;FALSE;1;2023-03-01 12:07:29.400184;2023-03-01 12:07:29.400184;;;f;f;f;f;f;f
684;ZAP;421;130;61406;ANDRANOBORY;;;;;;;;;;FALSE;1;2023-03-01 12:07:29.400184;2023-03-01 12:07:29.400184;;;f;f;f;f;f;f
685;ZAP;422;130;61407;ANKARAMENA;;;;;;;;;;FALSE;1;2023-03-01 12:07:29.400184;2023-03-01 12:07:29.400184;;;f;f;f;f;f;f
686;ZAP;423;130;61410;BEVOAY;;;;;;;;;;FALSE;1;2023-03-01 12:07:29.400184;2023-03-01 12:07:29.400184;;;f;f;f;f;f;f
687;ZAP;424;130;61412;ENAKARA HAUT;;;;;;;;;;FALSE;1;2023-03-01 12:07:29.400184;2023-03-01 12:07:29.400184;;;f;f;f;f;f;f
688;ZAP;425;130;61413;ENANILIHA;;;;;;;;;;FALSE;1;2023-03-01 12:07:29.400184;2023-03-01 12:07:29.400184;;;f;f;f;f;f;f
689;ZAP;426;130;61414;FENOEVO;;;;;;;;;;FALSE;1;2023-03-01 12:07:29.400184;2023-03-01 12:07:29.400184;;;f;f;f;f;f;f
690;ZAP;427;130;61415;IABOAKOHO;;;;;;;;;;FALSE;1;2023-03-01 12:07:29.400184;2023-03-01 12:07:29.400184;;;f;f;f;f;f;f
691;ZAP;428;130;61416;IFARANTSA;;;;;;;;;;FALSE;1;2023-03-01 12:07:29.400184;2023-03-01 12:07:29.400184;;;f;f;f;f;f;f
692;ZAP;429;130;61417;ISAKA IVONDRO;;;;;;;;;;FALSE;1;2023-03-01 12:07:29.400184;2023-03-01 12:07:29.400184;;;f;f;f;f;f;f
693;ZAP;430;130;61415;IABOAKOHO;;;;;;;;;;FALSE;1;2023-03-01 12:07:29.400184;2023-03-01 12:07:29.400184;;;f;f;f;f;f;f
694;ZAP;430;130;61418;MAHATALAKY;;;;;;;;;;FALSE;1;2023-03-01 12:07:29.400184;2023-03-01 12:07:29.400184;;;f;f;f;f;f;f
695;ZAP;431;130;61419;MANAMBARO;;;;;;;;;;FALSE;1;2023-03-01 12:07:29.400184;2023-03-01 12:07:29.400184;;;f;f;f;f;f;f
696;ZAP;432;130;61420;MANANTENINA;;;;;;;;;;FALSE;1;2023-03-01 12:07:29.400184;2023-03-01 12:07:29.400184;;;f;f;f;f;f;f
697;ZAP;433;130;61421;MANDISO;;;;;;;;;;FALSE;1;2023-03-01 12:07:29.400184;2023-03-01 12:07:29.400184;;;f;f;f;f;f;f
698;ZAP;434;130;61422;MANDROMODROMOTRA;;;;;;;;;;FALSE;1;2023-03-01 12:07:29.400184;2023-03-01 12:07:29.400184;;;f;f;f;f;f;f
699;ZAP;435;130;61423;RANOMAFANA;;;;;;;;;;FALSE;1;2023-03-01 12:07:29.400184;2023-03-01 12:07:29.400184;;;f;f;f;f;f;f
700;ZAP;436;130;61424;RANOPISO;;;;;;;;;;FALSE;1;2023-03-01 12:07:29.400184;2023-03-01 12:07:29.400184;;;f;f;f;f;f;f
701;ZAP;437;130;61409;ANKILIVALO;;;;;;;;;;FALSE;1;2023-03-01 12:07:29.400184;2023-03-01 12:07:29.400184;;;f;f;f;f;f;f
702;ZAP;438;130;61425;SARISAMBO;;;;;;;;;;FALSE;1;2023-03-01 12:07:29.400184;2023-03-01 12:07:29.400184;;;f;f;f;f;f;f
703;ZAP;439;130;61426;SOANIERANA;;;;;;;;;;FALSE;1;2023-03-01 12:07:29.400184;2023-03-01 12:07:29.400184;;;f;f;f;f;f;f
704;ZAP;440;130;61431;TAOLANARO III;;;;;;;;;;FALSE;1;2023-03-01 12:07:29.400184;2023-03-01 12:07:29.400184;;;f;f;f;f;f;f
705;ZAP;440;130;61430;TAOLANARO II;;;;;;;;;;FALSE;1;2023-03-01 12:07:29.400184;2023-03-01 12:07:29.400184;;;f;f;f;f;f;f
706;ZAP;440;130;61429;TAOLANARO I;;;;;;;;;;FALSE;1;2023-03-01 12:07:29.400184;2023-03-01 12:07:29.400184;;;f;f;f;f;f;f
707;ZAP;441;130;61408;ANKARIERA;;;;;;;;;;FALSE;1;2023-03-01 12:07:29.400184;2023-03-01 12:07:29.400184;;;f;f;f;f;f;f
708;ZAP;442;130;61411;EMAGNOBO;;;;;;;;;;FALSE;1;2023-03-01 12:07:29.400184;2023-03-01 12:07:29.400184;;;f;f;f;f;f;f
709;ZAP;443;119;60303;AMBOASARY III;;;;;;;;;;FALSE;1;2023-03-01 12:07:29.400184;2023-03-01 12:07:29.400184;;;f;f;f;f;f;f
710;ZAP;443;119;60301;AMBOASARY I;;;;;;;;;;FALSE;1;2023-03-01 12:07:29.400184;2023-03-01 12:07:29.400184;;;f;f;f;f;f;f
711;ZAP;444;119;60304;BEHARA I;;;;;;;;;;FALSE;1;2023-03-01 12:07:29.400184;2023-03-01 12:07:29.400184;;;f;f;f;f;f;f
712;ZAP;445;119;60311;IFOTAKA II;;;;;;;;;;FALSE;1;2023-03-01 12:07:29.400184;2023-03-01 12:07:29.400184;;;f;f;f;f;f;f
713;ZAP;446;119;60322;TSIVORY;;;;;;;;;;FALSE;1;2023-03-01 12:07:29.400184;2023-03-01 12:07:29.400184;;;f;f;f;f;f;f
714;ZAP;443;119;60302;AMBOASARY II;;;;;;;;;;FALSE;1;2023-03-01 12:07:29.400184;2023-03-01 12:07:29.400184;;;f;f;f;f;f;f
715;ZAP;444;119;60305;BEHARA II;;;;;;;;;;FALSE;1;2023-03-01 12:07:29.400184;2023-03-01 12:07:29.400184;;;f;f;f;f;f;f
716;ZAP;447;119;60307;EBELO;;;;;;;;;;FALSE;1;2023-03-01 12:07:29.400184;2023-03-01 12:07:29.400184;;;f;f;f;f;f;f
717;ZAP;448;119;60308;ELONTY;;;;;;;;;;FALSE;1;2023-03-01 12:07:29.400184;2023-03-01 12:07:29.400184;;;f;f;f;f;f;f
718;ZAP;449;119;60309;ESIRA;;;;;;;;;;FALSE;1;2023-03-01 12:07:29.400184;2023-03-01 12:07:29.400184;;;f;f;f;f;f;f
719;ZAP;450;119;60312;MAHABO;;;;;;;;;;FALSE;1;2023-03-01 12:07:29.400184;2023-03-01 12:07:29.400184;;;f;f;f;f;f;f
720;ZAP;445;119;60310;IFOTAKA I;;;;;;;;;;FALSE;1;2023-03-01 12:07:29.400184;2023-03-01 12:07:29.400184;;;f;f;f;f;f;f
721;ZAP;451;119;60313;MAHALY;;;;;;;;;;FALSE;1;2023-03-01 12:07:29.400184;2023-03-01 12:07:29.400184;;;f;f;f;f;f;f
722;ZAP;452;119;60314;MANEVY;;;;;;;;;;FALSE;1;2023-03-01 12:07:29.400184;2023-03-01 12:07:29.400184;;;f;f;f;f;f;f
723;ZAP;453;119;60315;MAROMBY;;;;;;;;;;FALSE;1;2023-03-01 12:07:29.400184;2023-03-01 12:07:29.400184;;;f;f;f;f;f;f
724;ZAP;454;119;60316;MAROTSIRAKA;;;;;;;;;;FALSE;1;2023-03-01 12:07:29.400184;2023-03-01 12:07:29.400184;;;f;f;f;f;f;f
725;ZAP;455;119;60318;SAMPONA;;;;;;;;;;FALSE;1;2023-03-01 12:07:29.400184;2023-03-01 12:07:29.400184;;;f;f;f;f;f;f
726;ZAP;456;119;60306;BERANO VILLE;;;;;;;;;;FALSE;1;2023-03-01 12:07:29.400184;2023-03-01 12:07:29.400184;;;f;f;f;f;f;f
727;ZAP;457;119;60319;TANANDAVA SUD;;;;;;;;;;FALSE;1;2023-03-01 12:07:29.400184;2023-03-01 12:07:29.400184;;;f;f;f;f;f;f
728;ZAP;458;119;60321;TRANOMARO;;;;;;;;;;FALSE;1;2023-03-01 12:07:29.400184;2023-03-01 12:07:29.400184;;;f;f;f;f;f;f
729;ZAP;459;119;60317;RANOBE;;;;;;;;;;FALSE;1;2023-03-01 12:07:29.400184;2023-03-01 12:07:29.400184;;;f;f;f;f;f;f
730;ZAP;460;119;60320;TOMBOARIVO;;;;;;;;;;FALSE;1;2023-03-01 12:07:29.400184;2023-03-01 12:07:29.400184;;;f;f;f;f;f;f
731;ZAP;461;129;61301;AMBALASOA;;;;;;;;;;FALSE;1;2023-03-01 12:07:29.400184;2023-03-01 12:07:29.400184;;;f;f;f;f;f;f
732;ZAP;462;129;61316;KELIVAHO;;;;;;;;;;FALSE;1;2023-03-01 12:07:29.400184;2023-03-01 12:07:29.400184;;;f;f;f;f;f;f
733;ZAP;463;129;61302;AMBATOMIVARY;;;;;;;;;;FALSE;1;2023-03-01 12:07:29.400184;2023-03-01 12:07:29.400184;;;f;f;f;f;f;f
734;ZAP;464;129;61307;BEKOROBO;;;;;;;;;;FALSE;1;2023-03-01 12:07:29.400184;2023-03-01 12:07:29.400184;;;f;f;f;f;f;f
735;ZAP;465;129;61309;BETROKA;;;;;;;;;;FALSE;1;2023-03-01 12:07:29.400184;2023-03-01 12:07:29.400184;;;f;f;f;f;f;f
736;ZAP;466;129;61311;IANABINDA;;;;;;;;;;FALSE;1;2023-03-01 12:07:29.400184;2023-03-01 12:07:29.400184;;;f;f;f;f;f;f
737;ZAP;467;129;61313;ISOANALA;;;;;;;;;;FALSE;1;2023-03-01 12:07:29.400184;2023-03-01 12:07:29.400184;;;f;f;f;f;f;f
738;ZAP;468;129;61314;IVAHONA;;;;;;;;;;FALSE;1;2023-03-01 12:07:29.400184;2023-03-01 12:07:29.400184;;;f;f;f;f;f;f
739;ZAP;469;129;61315;JANGANY;;;;;;;;;;FALSE;1;2023-03-01 12:07:29.400184;2023-03-01 12:07:29.400184;;;f;f;f;f;f;f
740;ZAP;470;129;61317;MAHABO;;;;;;;;;;FALSE;1;2023-03-01 12:07:29.400184;2023-03-01 12:07:29.400184;;;f;f;f;f;f;f
741;ZAP;471;129;61321;SAKAMAHILY;;;;;;;;;;FALSE;1;2023-03-01 12:07:29.400184;2023-03-01 12:07:29.400184;;;f;f;f;f;f;f
742;ZAP;472;129;61304;ANDRIANDAMPY;;;;;;;;;;FALSE;1;2023-03-01 12:07:29.400184;2023-03-01 12:07:29.400184;;;f;f;f;f;f;f
743;ZAP;473;129;61305;BEAMPOMBO I;;;;;;;;;;FALSE;1;2023-03-01 12:07:29.400184;2023-03-01 12:07:29.400184;;;f;f;f;f;f;f
744;ZAP;474;129;61306;BEAMPOMBO II;;;;;;;;;;FALSE;1;2023-03-01 12:07:29.400184;2023-03-01 12:07:29.400184;;;f;f;f;f;f;f
745;ZAP;475;129;61308;BENATO TOBY;;;;;;;;;;FALSE;1;2023-03-01 12:07:29.400184;2023-03-01 12:07:29.400184;;;f;f;f;f;f;f
746;ZAP;476;129;61310;IABOROTRA;;;;;;;;;;FALSE;1;2023-03-01 12:07:29.400184;2023-03-01 12:07:29.400184;;;f;f;f;f;f;f
747;ZAP;477;129;61312;IANAKAFY;;;;;;;;;;FALSE;1;2023-03-01 12:07:29.400184;2023-03-01 12:07:29.400184;;;f;f;f;f;f;f
748;ZAP;478;129;61318;MAHASOA EST;;;;;;;;;;FALSE;1;2023-03-01 12:07:29.400184;2023-03-01 12:07:29.400184;;;f;f;f;f;f;f
749;ZAP;479;129;61319;NANARENA;;;;;;;;;;FALSE;1;2023-03-01 12:07:29.400184;2023-03-01 12:07:29.400184;;;f;f;f;f;f;f
750;ZAP;480;129;61320;NANINORA;;;;;;;;;;FALSE;1;2023-03-01 12:07:29.400184;2023-03-01 12:07:29.400184;;;f;f;f;f;f;f
751;ZAP;481;129;61322;TSARAITSO;;;;;;;;;;FALSE;1;2023-03-01 12:07:29.400184;2023-03-01 12:07:29.400184;;;f;f;f;f;f;f
752;ZAP;482;129;61303;ANALAMARY;;;;;;;;;;FALSE;1;2023-03-01 12:07:29.400184;2023-03-01 12:07:29.400184;;;f;f;f;f;f;f
753;ZAP;483;117;60103;BETANIA;;;;;;;;;;FALSE;1;2023-03-01 12:07:29.400184;2023-03-01 12:07:29.400184;;;f;f;f;f;f;f
754;ZAP;483;117;60106;TANAMBAO II TSF NORD;;;;;;;;;;FALSE;1;2023-03-01 12:07:29.400184;2023-03-01 12:07:29.400184;;;f;f;f;f;f;f
755;ZAP;483;117;60105;TANAMBAO I;;;;;;;;;;FALSE;1;2023-03-01 12:07:29.400184;2023-03-01 12:07:29.400184;;;f;f;f;f;f;f
756;ZAP;483;117;60104;MAHAVATSE;;;;;;;;;;FALSE;1;2023-03-01 12:07:29.400184;2023-03-01 12:07:29.400184;;;f;f;f;f;f;f
757;ZAP;483;117;60101;ANKETA;;;;;;;;;;FALSE;1;2023-03-01 12:07:29.400184;2023-03-01 12:07:29.400184;;;f;f;f;f;f;f
758;ZAP;483;117;60102;BESAKOA;;;;;;;;;;FALSE;1;2023-03-01 12:07:29.400184;2023-03-01 12:07:29.400184;;;f;f;f;f;f;f
759;ZAP;484;122;60603;ANKAZOABO I;;;;;;;;;;FALSE;1;2023-03-01 12:07:29.400184;2023-03-01 12:07:29.400184;;;f;f;f;f;f;f
760;ZAP;484;122;60604;ANKAZOABO II;;;;;;;;;;FALSE;1;2023-03-01 12:07:29.400184;2023-03-01 12:07:29.400184;;;f;f;f;f;f;f
761;ZAP;485;122;60609;BERENTY II;;;;;;;;;;FALSE;1;2023-03-01 12:07:29.400184;2023-03-01 12:07:29.400184;;;f;f;f;f;f;f
762;ZAP;485;122;60608;BERENTY I;;;;;;;;;;FALSE;1;2023-03-01 12:07:29.400184;2023-03-01 12:07:29.400184;;;f;f;f;f;f;f
763;ZAP;486;122;60612;TANDRANO;;;;;;;;;;FALSE;1;2023-03-01 12:07:29.400184;2023-03-01 12:07:29.400184;;;f;f;f;f;f;f
764;ZAP;487;122;60607;ANKILIVALOKELY;;;;;;;;;;FALSE;1;2023-03-01 12:07:29.400184;2023-03-01 12:07:29.400184;;;f;f;f;f;f;f
765;ZAP;488;122;60602;ANDRANOMAFANA;;;;;;;;;;FALSE;1;2023-03-01 12:07:29.400184;2023-03-01 12:07:29.400184;;;f;f;f;f;f;f
766;ZAP;484;122;60605;ANKAZOABO III;;;;;;;;;;FALSE;1;2023-03-01 12:07:29.400184;2023-03-01 12:07:29.400184;;;f;f;f;f;f;f
767;ZAP;489;122;60610;FOTIVOLO;;;;;;;;;;FALSE;1;2023-03-01 12:07:29.400184;2023-03-01 12:07:29.400184;;;f;f;f;f;f;f
768;ZAP;490;122;60611;ILEMBY;;;;;;;;;;FALSE;1;2023-03-01 12:07:29.400184;2023-03-01 12:07:29.400184;;;f;f;f;f;f;f
769;ZAP;491;122;60606;ANKERIKY;;;;;;;;;;FALSE;1;2023-03-01 12:07:29.400184;2023-03-01 12:07:29.400184;;;f;f;f;f;f;f
770;ZAP;492;122;60601;AMBATOLAHY;;;;;;;;;;FALSE;1;2023-03-01 12:07:29.400184;2023-03-01 12:07:29.400184;;;f;f;f;f;f;f
771;ZAP;493;118;60201;AMBOHIMAHAVELONA;;;;;;;;;;FALSE;1;2023-03-01 12:07:29.400184;2023-03-01 12:07:29.400184;;;f;f;f;f;f;f
772;ZAP;494;118;60223;SOAHAZO;;;;;;;;;;FALSE;1;2023-03-01 12:07:29.400184;2023-03-01 12:07:29.400184;;;f;f;f;f;f;f
773;ZAP;495;118;60204;ANALAMISAMPY;;;;;;;;;;FALSE;1;2023-03-01 12:07:29.400184;2023-03-01 12:07:29.400184;;;f;f;f;f;f;f
774;ZAP;496;118;60206;ANDRANOVORY;;;;;;;;;;FALSE;1;2023-03-01 12:07:29.400184;2023-03-01 12:07:29.400184;;;f;f;f;f;f;f
775;ZAP;497;118;60207;ANKILILOAKA;;;;;;;;;;FALSE;1;2023-03-01 12:07:29.400184;2023-03-01 12:07:29.400184;;;f;f;f;f;f;f
776;ZAP;498;118;60208;ANKILIMALINIKE;;;;;;;;;;FALSE;1;2023-03-01 12:07:29.400184;2023-03-01 12:07:29.400184;;;f;f;f;f;f;f
777;ZAP;499;118;60220;MILENAKA;;;;;;;;;;FALSE;1;2023-03-01 12:07:29.400184;2023-03-01 12:07:29.400184;;;f;f;f;f;f;f
778;ZAP;500;118;60214;EFOETSE;;;;;;;;;;FALSE;1;2023-03-01 12:07:29.400184;2023-03-01 12:07:29.400184;;;f;f;f;f;f;f
779;ZAP;501;118;60210;BEHELOKE;;;;;;;;;;FALSE;1;2023-03-01 12:07:29.400184;2023-03-01 12:07:29.400184;;;f;f;f;f;f;f
780;ZAP;502;118;60212;BELALANDA;;;;;;;;;;FALSE;1;2023-03-01 12:07:29.400184;2023-03-01 12:07:29.400184;;;f;f;f;f;f;f
781;ZAP;503;118;60222;SAINT AUGUSTIN;;;;;;;;;;FALSE;1;2023-03-01 12:07:29.400184;2023-03-01 12:07:29.400184;;;f;f;f;f;f;f
782;ZAP;504;118;60226;TSIFOTA;;;;;;;;;;FALSE;1;2023-03-01 12:07:29.400184;2023-03-01 12:07:29.400184;;;f;f;f;f;f;f
783;ZAP;505;118;60215;MANOMBO SUD;;;;;;;;;;FALSE;1;2023-03-01 12:07:29.400184;2023-03-01 12:07:29.400184;;;f;f;f;f;f;f
784;ZAP;506;118;60217;MAROFOTY;;;;;;;;;;FALSE;1;2023-03-01 12:07:29.400184;2023-03-01 12:07:29.400184;;;f;f;f;f;f;f
785;ZAP;507;118;60218;MAROMIANDRA;;;;;;;;;;FALSE;1;2023-03-01 12:07:29.400184;2023-03-01 12:07:29.400184;;;f;f;f;f;f;f
786;ZAP;508;118;60224;SOALARA SUD;;;;;;;;;;FALSE;1;2023-03-01 12:07:29.400184;2023-03-01 12:07:29.400184;;;f;f;f;f;f;f
787;ZAP;509;118;60225;TSIANISIHA;;;;;;;;;;FALSE;1;2023-03-01 12:07:29.400184;2023-03-01 12:07:29.400184;;;f;f;f;f;f;f
788;ZAP;510;118;60219;MIARY;;;;;;;;;;FALSE;1;2023-03-01 12:07:29.400184;2023-03-01 12:07:29.400184;;;f;f;f;f;f;f
789;ZAP;511;118;60205;ANDRANOHINALY;;;;;;;;;;FALSE;1;2023-03-01 12:07:29.400184;2023-03-01 12:07:29.400184;;;f;f;f;f;f;f
790;ZAP;512;118;60221;MITSINJO BETANIMENA;;;;;;;;;;FALSE;1;2023-03-01 12:07:29.400184;2023-03-01 12:07:29.400184;;;f;f;f;f;f;f
791;ZAP;513;118;60213;BETSINJAKA;;;;;;;;;;FALSE;1;2023-03-01 12:07:29.400184;2023-03-01 12:07:29.400184;;;f;f;f;f;f;f
792;ZAP;514;118;60203;ANAKAO;;;;;;;;;;FALSE;1;2023-03-01 12:07:29.400184;2023-03-01 12:07:29.400184;;;f;f;f;f;f;f
793;ZAP;515;118;60211;BEHOMPY;;;;;;;;;;FALSE;1;2023-03-01 12:07:29.400184;2023-03-01 12:07:29.400184;;;f;f;f;f;f;f
794;ZAP;516;118;60202;AMBOLOFOTY;;;;;;;;;;FALSE;1;2023-03-01 12:07:29.400184;2023-03-01 12:07:29.400184;;;f;f;f;f;f;f
795;ZAP;517;118;60209;ANTANIMENA ONILAHY;;;;;;;;;;FALSE;1;2023-03-01 12:07:29.400184;2023-03-01 12:07:29.400184;;;f;f;f;f;f;f
796;ZAP;518;118;60216;MANOROFIFY;;;;;;;;;;FALSE;1;2023-03-01 12:07:29.400184;2023-03-01 12:07:29.400184;;;f;f;f;f;f;f
797;ZAP;519;121;60503;AMPANIHY CENTRE;;;;;;;;;;FALSE;1;2023-03-01 12:07:29.400184;2023-03-01 12:07:29.400184;;;f;f;f;f;f;f
798;ZAP;520;121;60513;BEROY SUD;;;;;;;;;;FALSE;1;2023-03-01 12:07:29.400184;2023-03-01 12:07:29.400184;;;f;f;f;f;f;f
799;ZAP;521;121;60514;EJEDA I;;;;;;;;;;FALSE;1;2023-03-01 12:07:29.400184;2023-03-01 12:07:29.400184;;;f;f;f;f;f;f
800;ZAP;521;121;60515;EJEDA II;;;;;;;;;;FALSE;1;2023-03-01 12:07:29.400184;2023-03-01 12:07:29.400184;;;f;f;f;f;f;f
801;ZAP;522;121;60516;FOTADREVO;;;;;;;;;;FALSE;1;2023-03-01 12:07:29.400184;2023-03-01 12:07:29.400184;;;f;f;f;f;f;f
802;ZAP;523;121;60517;GOGOGOGO;;;;;;;;;;FALSE;1;2023-03-01 12:07:29.400184;2023-03-01 12:07:29.400184;;;f;f;f;f;f;f
803;ZAP;524;121;60504;ANDROIMPANO;;;;;;;;;;FALSE;1;2023-03-01 12:07:29.400184;2023-03-01 12:07:29.400184;;;f;f;f;f;f;f
804;ZAP;525;121;60518;ITAMPOLO;;;;;;;;;;FALSE;1;2023-03-01 12:07:29.400184;2023-03-01 12:07:29.400184;;;f;f;f;f;f;f
805;ZAP;526;121;60506;ANKILIABO;;;;;;;;;;FALSE;1;2023-03-01 12:07:29.400184;2023-03-01 12:07:29.400184;;;f;f;f;f;f;f
806;ZAP;527;121;60502;AMBOROMPOTSY;;;;;;;;;;FALSE;1;2023-03-01 12:07:29.400184;2023-03-01 12:07:29.400184;;;f;f;f;f;f;f
807;ZAP;528;121;60505;ANDROKA;;;;;;;;;;FALSE;1;2023-03-01 12:07:29.400184;2023-03-01 12:07:29.400184;;;f;f;f;f;f;f
808;ZAP;529;121;60507;ANKILIMIVORY;;;;;;;;;;FALSE;1;2023-03-01 12:07:29.400184;2023-03-01 12:07:29.400184;;;f;f;f;f;f;f
809;ZAP;530;121;60508;ANKILIZATO;;;;;;;;;;FALSE;1;2023-03-01 12:07:29.400184;2023-03-01 12:07:29.400184;;;f;f;f;f;f;f
810;ZAP;531;121;60508;ANKILIZATO;;;;;;;;;;FALSE;1;2023-03-01 12:07:29.400184;2023-03-01 12:07:29.400184;;;f;f;f;f;f;f
